{
"type": "FeatureCollection",
"crs": { "type": "name", "properties": { "name": "urn:ogc:def:crs:EPSG::4674" } },
                                                                                
"features": [
{ "type": "Feature", "properties": { "Nome_Reque": "Bosque Residencial Natal Norte LTDA", "MUNICIPIO": "SÃO GONÇALO DO AMARANTE", "NUM_LICENS": "1657\/13", "DATA_VALID": "27\/09\/2016", "TIPO_OBRA": "Poço Tubular", "FONTE": "Sem Informação" }, "geometry": { "type": "Point", "coordinates": [ -35.311924371340496, -5.750127399268718 ] } },
{ "type": "Feature", "properties": { "Nome_Reque": "FG Empreedimentos Imobiliários LTDA", "MUNICIPIO": "SÃO GONÇALO DO AMARANTE", "NUM_LICENS": "0012\/13", "DATA_VALID": "04\/03\/2016", "TIPO_OBRA": "Poço Tubular", "FONTE": "Sem Informação" }, "geometry": { "type": "Point", "coordinates": [ -35.31965793549714, -5.745540313437741 ] } },
{ "type": "Feature", "properties": { "Nome_Reque": "Walter Baracho Pereira", "MUNICIPIO": "TOUROS", "NUM_LICENS": "1683\/13", "DATA_VALID": "19\/03\/2017", "TIPO_OBRA": "Poço Tubular", "FONTE": "Sem Informação" }, "geometry": { "type": "Point", "coordinates": [ -35.544250073022205, -5.194858409997123 ] } },
{ "type": "Feature", "properties": { "Nome_Reque": "Luzinete Lira Santos", "MUNICIPIO": "JOÃO CÂMARA", "NUM_LICENS": "0001\/13", "DATA_VALID": "22\/03\/2017", "TIPO_OBRA": "Poço Tubular", "FONTE": "Sem Informação" }, "geometry": { "type": "Point", "coordinates": [ -35.829977947030329, -5.4667155679534 ] } },
{ "type": "Feature", "properties": { "Nome_Reque": "Jorge da Silva Martins", "MUNICIPIO": "CEARÁ-MIRIM", "NUM_LICENS": "1688\/13", "DATA_VALID": "16\/03\/2017", "TIPO_OBRA": "Poço tubular", "FONTE": "Sem Informação" }, "geometry": { "type": "Point", "coordinates": [ -35.432966786615189, -5.653808412578744 ] } },
{ "type": "Feature", "properties": { "Nome_Reque": "Departamento de Estradas de Rodagem - DER", "MUNICIPIO": "TIBAU DO SUL", "NUM_LICENS": "0008\/13", "DATA_VALID": "29\/05\/2016", "TIPO_OBRA": "Bueiros Celulares de concreto armado", "FONTE": "Sem Informação" }, "geometry": { "type": "Point", "coordinates": [ -35.138376641972073, -6.258614570654494 ] } },
{ "type": "Feature", "properties": { "Nome_Reque": "Departamento de Estradas de Rodagem - DER", "MUNICIPIO": "TIBAU DO SUL", "NUM_LICENS": "0008\/13", "DATA_VALID": "29\/05\/2016", "TIPO_OBRA": "Bueiros Celulares de concreto armado", "FONTE": "Sem Informação" }, "geometry": { "type": "Point", "coordinates": [ -35.133698598281235, -6.259013287775312 ] } },
{ "type": "Feature", "properties": { "Nome_Reque": "Departamento de Estradas de Rodagem - DER", "MUNICIPIO": "TIBAU DO SUL", "NUM_LICENS": "0008\/13", "DATA_VALID": "29\/05\/2016", "TIPO_OBRA": "Bueiros Celulares de concreto armado", "FONTE": "Sem Informação" }, "geometry": { "type": "Point", "coordinates": [ -35.162124434682362, -6.257974907851034 ] } },
{ "type": "Feature", "properties": { "Nome_Reque": "Departamento de Estradas de Rodagem - DER", "MUNICIPIO": "TIBAU DO SUL", "NUM_LICENS": "0009\/13", "DATA_VALID": "29\/05\/2016", "TIPO_OBRA": "Bueiros Celulares de concreto armado", "FONTE": "Sem Informação" }, "geometry": { "type": "Point", "coordinates": [ -35.077825416438806, -6.241671939648313 ] } },
{ "type": "Feature", "properties": { "Nome_Reque": "Departamento de Estradas de Rodagem - DER", "MUNICIPIO": "TIBAU DO SUL", "NUM_LICENS": "0009\/13", "DATA_VALID": "29\/05\/2016", "TIPO_OBRA": "Bueiros Celulares de concreto armado", "FONTE": "Sem Informação" }, "geometry": { "type": "Point", "coordinates": [ -35.124477091185263, -6.257360185756459 ] } },
{ "type": "Feature", "properties": { "Nome_Reque": "Departamento de Estradas de Rodagem - DER", "MUNICIPIO": "TIBAU DO SUL", "NUM_LICENS": "0009\/13", "DATA_VALID": "29\/05\/2016", "TIPO_OBRA": "Bueiros Celulares de concreto armado", "FONTE": "Sem Informação" }, "geometry": { "type": "Point", "coordinates": [ -35.07349045200538, -6.237440036552339 ] } },
{ "type": "Feature", "properties": { "Nome_Reque": "Departamento de Estradas de Rodagem - DER", "MUNICIPIO": "TIBAU DO SUL", "NUM_LICENS": "0009\/13", "DATA_VALID": "29\/05\/2016", "TIPO_OBRA": "Bueiros Celulares de concreto armado", "FONTE": "Sem Informação" }, "geometry": { "type": "Point", "coordinates": [ -35.121089291905605, -6.246155062524419 ] } },
{ "type": "Feature", "properties": { "Nome_Reque": "Departamento de Estradas de Rodagem - DER", "MUNICIPIO": "TIBAU DO SUL", "NUM_LICENS": "0009\/13", "DATA_VALID": "29\/05\/2016", "TIPO_OBRA": "Bueiros Celulares de concreto armado", "FONTE": "Sem Informação" }, "geometry": { "type": "Point", "coordinates": [ -35.112743858575776, -6.239887632744159 ] } },
{ "type": "Feature", "properties": { "Nome_Reque": "Departamento de Estradas de Rodagem - DER", "MUNICIPIO": "TIBAU DO SUL", "NUM_LICENS": "0009\/13", "DATA_VALID": "29\/05\/2016", "TIPO_OBRA": "Bueiros Celulares de concreto armado", "FONTE": "Sem Informação" }, "geometry": { "type": "Point", "coordinates": [ -35.071920654588972, -6.235683330126157 ] } },
{ "type": "Feature", "properties": { "Nome_Reque": "Departamento de Estradas de Rodagem - DER", "MUNICIPIO": "TIBAU DO SUL", "NUM_LICENS": "0009\/13", "DATA_VALID": "29\/05\/2016", "TIPO_OBRA": "Bueiros Celulares de concreto armado", "FONTE": "Sem Informação" }, "geometry": { "type": "Point", "coordinates": [ -35.102119467174902, -6.239767432080288 ] } },
{ "type": "Feature", "properties": { "Nome_Reque": "Departamento de Estradas de Rodagem - DER", "MUNICIPIO": "TIBAU DO SUL", "NUM_LICENS": "0010\/13", "DATA_VALID": "29\/05\/2016", "TIPO_OBRA": "Bueiros Celulares de concreto armado", "FONTE": "Sem Informação" }, "geometry": { "type": "Point", "coordinates": [ -35.06736220007825, -6.234336127312736 ] } },
{ "type": "Feature", "properties": { "Nome_Reque": "Departamento de Estradas de Rodagem - DER", "MUNICIPIO": "TIBAU DO SUL", "NUM_LICENS": "0010\/13", "DATA_VALID": "29\/05\/2016", "TIPO_OBRA": "Bueiros Celulares de concreto armado", "FONTE": "Sem Informação" }, "geometry": { "type": "Point", "coordinates": [ -35.062864744716414, -6.234724410693739 ] } },
{ "type": "Feature", "properties": { "Nome_Reque": "Departamento de Estradas de Rodagem - DER", "MUNICIPIO": "TIBAU DO SUL", "NUM_LICENS": "0010\/13", "DATA_VALID": "29\/05\/2016", "TIPO_OBRA": "Bueiros Celulares de concreto armado", "FONTE": "Sem Informação" }, "geometry": { "type": "Point", "coordinates": [ -35.059753494546335, -6.233823490511006 ] } },
{ "type": "Feature", "properties": { "Nome_Reque": "Departamento de Estradas de Rodagem - DER", "MUNICIPIO": "TIBAU DO SUL", "NUM_LICENS": "0010\/13", "DATA_VALID": "29\/05\/2016", "TIPO_OBRA": "Bueiros Celulares de concreto armado", "FONTE": "Sem Informação" }, "geometry": { "type": "Point", "coordinates": [ -35.056437658187036, -6.236060405428375 ] } },
{ "type": "Feature", "properties": { "Nome_Reque": "Departamento de Estradas de Rodagem - DER", "MUNICIPIO": "TIBAU DO SUL", "NUM_LICENS": "0010\/13", "DATA_VALID": "29\/05\/2016", "TIPO_OBRA": "Bueiros Celulares de concreto armado", "FONTE": "Sem Informação" }, "geometry": { "type": "Point", "coordinates": [ -35.049469938489992, -6.242424983014334 ] } },
{ "type": "Feature", "properties": { "Nome_Reque": "Departamento de Estradas de Rodagem - DER", "MUNICIPIO": "TIBAU DO SUL", "NUM_LICENS": "0010\/13", "DATA_VALID": "29\/05\/2016", "TIPO_OBRA": "Bueiros Celulares de concreto armado", "FONTE": "Sem Informação" }, "geometry": { "type": "Point", "coordinates": [ -35.046749491945221, -6.242137230288636 ] } },
{ "type": "Feature", "properties": { "Nome_Reque": "Departamento de Estradas de Rodagem - DER", "MUNICIPIO": "TIBAU DO SUL", "NUM_LICENS": "0010\/13", "DATA_VALID": "29\/05\/2016", "TIPO_OBRA": "Bueiros Celulares de concreto armado", "FONTE": "Sem Informação" }, "geometry": { "type": "Point", "coordinates": [ -35.042802491230354, -6.240064187341748 ] } },
{ "type": "Feature", "properties": { "Nome_Reque": "Departamento de Estradas de Rodagem - DER", "MUNICIPIO": "TIBAU DO SUL", "NUM_LICENS": "0010\/13", "DATA_VALID": "29\/05\/2016", "TIPO_OBRA": "Bueiros Celulares de concreto armado", "FONTE": "Sem Informação" }, "geometry": { "type": "Point", "coordinates": [ -35.040473711894961, -6.238265096724764 ] } },
{ "type": "Feature", "properties": { "Nome_Reque": "Departamento de Estradas de Rodagem - DER", "MUNICIPIO": "TIBAU DO SUL", "NUM_LICENS": "0010\/13", "DATA_VALID": "29\/05\/2016", "TIPO_OBRA": "Bueiros Celulares de concreto armado", "FONTE": "Sem Informação" }, "geometry": { "type": "Point", "coordinates": [ -35.057967482680112, -6.234526586424215 ] } },
{ "type": "Feature", "properties": { "Nome_Reque": "Departamento de Estradas de Rodagem - DER", "MUNICIPIO": "TIBAU DO SUL", "NUM_LICENS": "0010\/13", "DATA_VALID": "29\/05\/2016", "TIPO_OBRA": "Bueiros Celulares de concreto armado", "FONTE": "Sem Informação" }, "geometry": { "type": "Point", "coordinates": [ -35.052972891293926, -6.239500279879073 ] } },
{ "type": "Feature", "properties": { "Nome_Reque": "Departamento de Estradas de Rodagem - DER", "MUNICIPIO": "TIBAU DO SUL", "NUM_LICENS": "0010\/13", "DATA_VALID": "29\/05\/2016", "TIPO_OBRA": "Bueiros Celulares de concreto armado", "FONTE": "Sem Informação" }, "geometry": { "type": "Point", "coordinates": [ -35.176189940267882, -6.262273989543703 ] } },
{ "type": "Feature", "properties": { "Nome_Reque": "CAERN Companhia de Águas e Esgotos do RN", "MUNICIPIO": "SERRINHA", "NUM_LICENS": "0012\/13", "DATA_VALID": "07\/06\/2017", "TIPO_OBRA": "Poço tubular", "FONTE": "Sem Informação" }, "geometry": { "type": "Point", "coordinates": [ -35.558194670766461, -6.210411141167672 ] } },
{ "type": "Feature", "properties": { "Nome_Reque": "Rionorte Organização de Vendas LTDA", "MUNICIPIO": "SÃO GONÇALO DO AMARANTE", "NUM_LICENS": "0024\/13", "DATA_VALID": "25\/07\/2017", "TIPO_OBRA": "Poço tubular", "FONTE": "Sem Informação" }, "geometry": { "type": "Point", "coordinates": [ -35.317131496783986, -5.772360547391476 ] } },
{ "type": "Feature", "properties": { "Nome_Reque": "SECRETARIA MUNICIPAL DE SERVIÇOS URBANOS - SEMSUR", "MUNICIPIO": "NATAL", "NUM_LICENS": "0009\/15", "DATA_VALID": "09\/03\/2016", "TIPO_OBRA": "POÇO TUBULAR", "FONTE": "AQUÍFERO BARREIRAS" }, "geometry": { "type": "Point", "coordinates": [ -35.196966227326897, -5.79054669260398 ] } },
{ "type": "Feature", "properties": { "Nome_Reque": "SECRETARIA MUNICIPAL DE SERVIÇOS URBANOS - SEMSUR", "MUNICIPIO": "NATAL", "NUM_LICENS": "0009\/15", "DATA_VALID": "09\/03\/2016", "TIPO_OBRA": "POÇO TUBULAR", "FONTE": "AQUÍFERO BARREIRAS" }, "geometry": { "type": "Point", "coordinates": [ -35.212564678283194, -5.818726138295082 ] } },
{ "type": "Feature", "properties": { "Nome_Reque": "SECRETARIA MUNICIPAL DE SERVIÇOS URBANOS - SEMSUR", "MUNICIPIO": "NATAL", "NUM_LICENS": "0009\/15", "DATA_VALID": "09\/03\/2016", "TIPO_OBRA": "POÇO TUBULAR", "FONTE": "AQUÍFERO BARREIRAS" }, "geometry": { "type": "Point", "coordinates": [ -35.2194057079641, -5.836869030004509 ] } },
{ "type": "Feature", "properties": { "Nome_Reque": "SECRETARIA MUNICIPAL DE SERVIÇOS URBANOS - SEMSUR", "MUNICIPIO": "NATAL", "NUM_LICENS": "0009\/15", "DATA_VALID": "09\/03\/2016", "TIPO_OBRA": "POÇO TUBULAR", "FONTE": "AQUÍFERO BARREIRAS" }, "geometry": { "type": "Point", "coordinates": [ -35.285040950276908, -5.763984464720831 ] } },
{ "type": "Feature", "properties": { "Nome_Reque": "MATURAYA INVESTIMENTOS IMOBILIÁRIOS LTDA", "MUNICIPIO": "CEARÁ-MIRIM", "NUM_LICENS": "0011\/15", "DATA_VALID": "10\/03\/2016", "TIPO_OBRA": "POÇO TUBULAR", "FONTE": "AQUÍFERO BARREIRAS" }, "geometry": { "type": "Point", "coordinates": [ -35.465964026412962, -5.64596859000267 ] } },
{ "type": "Feature", "properties": { "Nome_Reque": "MORABEM 4 - EMPREENDIMENTOS IMOBILIÁRIOS LTDA", "MUNICIPIO": "PARNAMIRIM", "NUM_LICENS": "0013\/15", "DATA_VALID": "26\/03\/2016", "TIPO_OBRA": "POÇO TUBULAR", "FONTE": "AQUÍFERO BARREIRAS" }, "geometry": { "type": "Point", "coordinates": [ -35.282869538473498, -5.914208180351245 ] } },
{ "type": "Feature", "properties": { "Nome_Reque": "MARINA BONFIM EMPREENDIMENTOS SPE LTDA", "MUNICIPIO": "NÍSIA FLORESTA", "NUM_LICENS": "0014\/15", "DATA_VALID": "31\/03\/2016", "TIPO_OBRA": "POÇO TUBULAR", "FONTE": "AQUÍFERO BARREIRAS" }, "geometry": { "type": "Point", "coordinates": [ -35.185666101209598, -6.014083026819608 ] } },
{ "type": "Feature", "properties": { "Nome_Reque": "ITOGRASS AGRÍCOLA ALTA MOGIANA - SUBSTITUI A 0083\/14", "MUNICIPIO": "TOUROS", "NUM_LICENS": "0015\/15", "DATA_VALID": "17\/04\/2016", "TIPO_OBRA": "POÇO TUBULAR", "FONTE": "substitui a licença de nº 0083\/14 concedida em 17 de outubro de 2014" }, "geometry": { "type": "Point", "coordinates": [ -35.515039220544061, -5.252935823306461 ] } },
{ "type": "Feature", "properties": { "Nome_Reque": "ITOGRASS AGRÍCOLA ALTA MOGIANA - SUBSTITUI A 0083\/14", "MUNICIPIO": "TOUROS", "NUM_LICENS": "0015\/15", "DATA_VALID": "17\/04\/2016", "TIPO_OBRA": "POÇO TUBULAR", "FONTE": "substitui a licença de nº 0083\/14 concedida em 17 de outubro de 2014" }, "geometry": { "type": "Point", "coordinates": [ -35.511435890101488, -5.253682412960593 ] } },
{ "type": "Feature", "properties": { "Nome_Reque": "COMUNIDADE NOVO TEMPO", "MUNICIPIO": "MACAÍBA", "NUM_LICENS": "0016\/15", "DATA_VALID": "17\/04\/2016", "TIPO_OBRA": "POÇO TUBULAR", "FONTE": "AQUÍFERO BARREIRAS" }, "geometry": { "type": "Point", "coordinates": [ -35.285893943910253, -5.861279886412066 ] } },
{ "type": "Feature", "properties": { "Nome_Reque": "NEWTON COELHO DE MEDEIROS", "MUNICIPIO": "PARNAMIRIM", "NUM_LICENS": "0017\/15", "DATA_VALID": "22\/04\/2016", "TIPO_OBRA": "PONTE", "FONTE": "Sem Informação" }, "geometry": { "type": "Point", "coordinates": [ -35.214064672576455, -5.892475251804134 ] } },
{ "type": "Feature", "properties": { "Nome_Reque": "CONSTEM - CONSTRUTORA TORRES E MELO LTDA", "MUNICIPIO": "NÍSIA FLORESTA", "NUM_LICENS": "0018\/15", "DATA_VALID": "28\/04\/2016", "TIPO_OBRA": "POÇO TUBULAR", "FONTE": "AQUÍFERO BARREIRAS" }, "geometry": { "type": "Point", "coordinates": [ -35.216829161154749, -6.072235956300898 ] } },
{ "type": "Feature", "properties": { "Nome_Reque": "CONSTEM - CONSTRUTORA TORRES E MELO LTDA", "MUNICIPIO": "NÍSIA FLORESTA", "NUM_LICENS": "0018\/15", "DATA_VALID": "28\/04\/2016", "TIPO_OBRA": "POÇO TUBULAR", "FONTE": "AQUÍFERO BARREIRAS" }, "geometry": { "type": "Point", "coordinates": [ -35.214582904801823, -6.068385229552606 ] } },
{ "type": "Feature", "properties": { "Nome_Reque": "SECRETARIA DE ESTADO DA INFRAESTRUTURA", "MUNICIPIO": "NATAL", "NUM_LICENS": "0019\/15", "DATA_VALID": "28\/04\/2016", "TIPO_OBRA": "BUEIRO ÓCTUPLO", "FONTE": "Sem Informação" }, "geometry": { "type": "Point", "coordinates": [ -35.222922560392917, -5.738982569006012 ] } },
{ "type": "Feature", "properties": { "Nome_Reque": "WELLINGTON SOARES NERI", "MUNICIPIO": "TOUROS", "NUM_LICENS": "0020\/15", "DATA_VALID": "07\/05\/2016", "TIPO_OBRA": "POÇO TUBULAR", "FONTE": "AQUÍFERO BARREIRAS" }, "geometry": { "type": "Point", "coordinates": [ -35.497584651452279, -5.205221766571745 ] } },
{ "type": "Feature", "properties": { "Nome_Reque": "AURI ALAÊCIO SIMPLÍCIO", "MUNICIPIO": "MACAÍBA", "NUM_LICENS": "0059\/15", "DATA_VALID": "03\/06\/2016", "TIPO_OBRA": "POÇO TUBULAR", "FONTE": "AQUÍFERO CRISTALINO" }, "geometry": { "type": "Point", "coordinates": [ -35.36635975450173, -5.909429517934273 ] } },
{ "type": "Feature", "properties": { "Nome_Reque": "EOLICABRAS S.A.", "MUNICIPIO": "PEDRA GRANDE", "NUM_LICENS": "0061\/15", "DATA_VALID": "09\/06\/2016", "TIPO_OBRA": "POÇO TUBULAR", "FONTE": "AQUÍFERO BARREIRAS" }, "geometry": { "type": "Point", "coordinates": [ -35.864726072756724, -5.113891702652015 ] } },
{ "type": "Feature", "properties": { "Nome_Reque": "EXTREMOZ TRANSMISSORA DO NORDESTE - ETN S.A.", "MUNICIPIO": "JOÃO CÂMARA", "NUM_LICENS": "0062\/15", "DATA_VALID": "23\/06\/2016", "TIPO_OBRA": "POÇO TUBULAR", "FONTE": "AQUÍFERO JANDAÍRA" }, "geometry": { "type": "Point", "coordinates": [ -35.867343013479541, -5.382898264946059 ] } },
{ "type": "Feature", "properties": { "Nome_Reque": "ELECNOR DO BRASIL LTDA", "MUNICIPIO": "CEARÁ-MIRIM", "NUM_LICENS": "0063\/15", "DATA_VALID": "23\/06\/2016", "TIPO_OBRA": "POÇO TUBULAR", "FONTE": "AQUÍFERO BARREIRAS" }, "geometry": { "type": "Point", "coordinates": [ -35.451923534767765, -5.675411379214323 ] } },
{ "type": "Feature", "properties": { "Nome_Reque": "BETOEL BANDEIRA DA SILVA", "MUNICIPIO": "PARAZINHO", "NUM_LICENS": "0064\/15", "DATA_VALID": "23\/06\/2016", "TIPO_OBRA": "POÇO TUBULAR", "FONTE": "AQUÍFERO JANDAÍRA" }, "geometry": { "type": "Point", "coordinates": [ -35.913275829451095, -5.245249356360226 ] } },
{ "type": "Feature", "properties": { "Nome_Reque": "W3 EMPREENDIMENTOS & SERVIÇOS LTDA", "MUNICIPIO": "NÍSIA FLORESTA", "NUM_LICENS": "0065\/15", "DATA_VALID": "23\/06\/2016", "TIPO_OBRA": "POÇO TUBULAR", "FONTE": "AQUÍFERO BARREIRAS" }, "geometry": { "type": "Point", "coordinates": [ -35.451923534767765, -5.675411379214323 ] } },
{ "type": "Feature", "properties": { "Nome_Reque": "M & K COM E CONSTRUÇÕES LTDA", "MUNICIPIO": "CEARÁ-MIRIM", "NUM_LICENS": "0072\/15", "DATA_VALID": "22\/07\/2016", "TIPO_OBRA": "POÇO TUBULAR", "FONTE": "AQUÍFERO BARREIRAS" }, "geometry": { "type": "Point", "coordinates": [ -35.433367091048261, -5.550027915112459 ] } },
{ "type": "Feature", "properties": { "Nome_Reque": "PREFEITURA MUNICIPAL DE SÃO MIGUEL DO GOSTOSO", "MUNICIPIO": "SÃO MIGUEL DO GOSTOSO", "NUM_LICENS": "0074\/15", "DATA_VALID": "28\/07\/2016", "TIPO_OBRA": "POÇO TUBULAR", "FONTE": "AQUÍFERO BARREIRAS\/JANDAÍRA" }, "geometry": { "type": "Point", "coordinates": [ -35.703450970466967, -5.262341119311627 ] } },
{ "type": "Feature", "properties": { "Nome_Reque": "PREFEITURA MUNICIPAL DE SÃO MIGUEL DO GOSTOSO", "MUNICIPIO": "SÃO MIGUEL DO GOSTOSO", "NUM_LICENS": "0075\/15", "DATA_VALID": "28\/07\/2016", "TIPO_OBRA": "POÇO TUBULAR", "FONTE": "AQUÍFERO BARREIRAS\/JANDAÍRA" }, "geometry": { "type": "Point", "coordinates": [ -35.699171301061284, -5.250313874378722 ] } },
{ "type": "Feature", "properties": { "Nome_Reque": "PREFEITURA MUNICIPAL DE SÃO MIGUEL DO GOSTOSO", "MUNICIPIO": "SÃO MIGUEL DO GOSTOSO", "NUM_LICENS": "0076\/15", "DATA_VALID": "28\/07\/2016", "TIPO_OBRA": "POÇO TUBULAR", "FONTE": "AQUÍFERO BARREIRAS\/JANDAÍRA" }, "geometry": { "type": "Point", "coordinates": [ -35.701808105770731, -5.255561765406291 ] } },
{ "type": "Feature", "properties": { "Nome_Reque": "EMPREENDIMENTO AERONAURICO COSTA ESMERALDA LAGOA DO BONFIM LTDA", "MUNICIPIO": "SÃO JOSÉ DE MIPIBU", "NUM_LICENS": "0083\/15", "DATA_VALID": "26\/08\/2016", "TIPO_OBRA": "POÇO TUBULAR", "FONTE": "AQUÍFERO BARREIRAS" }, "geometry": { "type": "Point", "coordinates": [ -35.240713311341047, -6.021498266483236 ] } },
{ "type": "Feature", "properties": { "Nome_Reque": "SECRETARIA MUNICIPAL DE SERVIÇOS URBANOS - SEMSUR", "MUNICIPIO": "NATAL", "NUM_LICENS": "0086\/15", "DATA_VALID": "28\/08\/2016", "TIPO_OBRA": "POÇO TUBULAR", "FONTE": "AQUÍFERO BARREIRAS" }, "geometry": { "type": "Point", "coordinates": [ -35.260725423041919, -5.763503019410567 ] } },
{ "type": "Feature", "properties": { "Nome_Reque": "CAMPO DOS VENTOS V ENERGIAS RENOVÁVEIS S.A.", "MUNICIPIO": "PARAZINHO", "NUM_LICENS": "0092\/15", "DATA_VALID": "08\/09\/2016", "TIPO_OBRA": "POÇO TUBULAR", "FONTE": "AQUÍFERO JANDAÍRA" }, "geometry": { "type": "Point", "coordinates": [ -35.949750217895563, -5.323390794111643 ] } },
{ "type": "Feature", "properties": { "Nome_Reque": "SANTA MÔNICA ENERGIAS RENOVAVEIS S.A.TOUROS", "MUNICIPIO": "TOUROS", "NUM_LICENS": "0093\/15", "DATA_VALID": "08\/09\/2016", "TIPO_OBRA": "POÇO TUBULAR", "FONTE": "AQUÍFERO JANDAÍRA" }, "geometry": { "type": "Point", "coordinates": [ -35.798281288476538, -5.29461398247738 ] } },
{ "type": "Feature", "properties": { "Nome_Reque": "EMPRESA DE PESQUISA AGROPECUÁRIA DO RIO GRANDE DO NORTE S\/A - EMPARN", "MUNICIPIO": "PARNAMIRIM", "NUM_LICENS": "0094\/15", "DATA_VALID": "16\/09\/2016", "TIPO_OBRA": "POÇO TUBULAR", "FONTE": "AQUÍFERO BARREIRAS" }, "geometry": { "type": "Point", "coordinates": [ -35.196475421869806, -5.923632760556179 ] } },
{ "type": "Feature", "properties": { "Nome_Reque": "EMPRESA DE PESQUISA AGROPECUÁRIA DO RIO GRANDE DO NORTE S\/A - EMPARN", "MUNICIPIO": "PARNAMIRIM", "NUM_LICENS": "0094\/15", "DATA_VALID": "16\/09\/2016", "TIPO_OBRA": "POÇO TUBULAR", "FONTE": "AQUÍFERO BARREIRAS" }, "geometry": { "type": "Point", "coordinates": [ -35.185791291269474, -5.922662539186475 ] } },
{ "type": "Feature", "properties": { "Nome_Reque": "CABRAL & CABRAL LTDA", "MUNICIPIO": "LAGOA SALGADA", "NUM_LICENS": "0095\/15", "DATA_VALID": "02\/10\/2016", "TIPO_OBRA": "BUEIRO", "FONTE": "Sem Informação" }, "geometry": { "type": "Point", "coordinates": [ -35.460706310239033, -6.124370432153302 ] } },
{ "type": "Feature", "properties": { "Nome_Reque": "CABRAL & CABRAL LTDA", "MUNICIPIO": "LAGOA SALGADA", "NUM_LICENS": "0095\/15", "DATA_VALID": "02\/10\/2016", "TIPO_OBRA": "BUEIRO", "FONTE": "Sem Informação" }, "geometry": { "type": "Point", "coordinates": [ -35.459276023817594, -6.125560982654797 ] } },
{ "type": "Feature", "properties": { "Nome_Reque": "STAR EMPREENDIMENTOS IMOBILIÁRIOS LTDA", "MUNICIPIO": "NÍSIA FLORESTA", "NUM_LICENS": "0096\/15", "DATA_VALID": "02\/10\/2016", "TIPO_OBRA": "POÇO TUBULAR", "FONTE": "AQUÍFERO BARREIRAS" }, "geometry": { "type": "Point", "coordinates": [ -35.137387080044192, -6.095327772452104 ] } },
{ "type": "Feature", "properties": { "Nome_Reque": "HP EMPREENDIMENTOS IMOBILIÁRIOS LTDA - EPP", "MUNICIPIO": "MACAÍBA", "NUM_LICENS": "0097\/15", "DATA_VALID": "02\/10\/2016", "TIPO_OBRA": "POÇO TUBULAR", "FONTE": "AQUÍFERO BARREIRAS" }, "geometry": { "type": "Point", "coordinates": [ -35.406144541593434, -5.860016863806412 ] } },
{ "type": "Feature", "properties": { "Nome_Reque": "INVESTIDOOR NEG[OCIOS IMOBILIÁRIOS LTDA", "MUNICIPIO": "MONTE ALEGRE", "NUM_LICENS": "0100\/15", "DATA_VALID": "02\/10\/2016", "TIPO_OBRA": "BUEIRO", "FONTE": "Sem Informação" }, "geometry": { "type": "Point", "coordinates": [ -35.34868592840138, -6.068045795986598 ] } },
{ "type": "Feature", "properties": { "Nome_Reque": "INVESTIDOOR NEG[OCIOS IMOBILIÁRIOS LTDA", "MUNICIPIO": "MONTE ALEGRE", "NUM_LICENS": "0100\/15", "DATA_VALID": "02\/10\/2016", "TIPO_OBRA": "BUEIRO", "FONTE": "Sem Informação" }, "geometry": { "type": "Point", "coordinates": [ -35.347516242531775, -6.073175885487569 ] } },
{ "type": "Feature", "properties": { "Nome_Reque": "INVESTIDOOR NEG[OCIOS IMOBILIÁRIOS LTDA", "MUNICIPIO": "MONTE ALEGRE", "NUM_LICENS": "0100\/15", "DATA_VALID": "02\/10\/2016", "TIPO_OBRA": "BUEIRO", "FONTE": "Sem Informação" }, "geometry": { "type": "Point", "coordinates": [ -35.345735578121754, -6.068582845613745 ] } },
{ "type": "Feature", "properties": { "Nome_Reque": "SÃO DOMINGOS ENERGIAS RENOVÁVEIS S.A.", "MUNICIPIO": "SÃO MIGUEL DO GOSTOSO", "NUM_LICENS": "0101\/15", "DATA_VALID": "14\/10\/2016", "TIPO_OBRA": "POÇO TUBULAR", "FONTE": "AQUÍFERO JANDAÍRA" }, "geometry": { "type": "Point", "coordinates": [ -35.800842296034439, -5.224303457775021 ] } },
{ "type": "Feature", "properties": { "Nome_Reque": "ORLANDO GERALDO DA SILVA", "MUNICIPIO": "TOUROS", "NUM_LICENS": "0104\/15", "DATA_VALID": "13\/10\/2016", "TIPO_OBRA": "POÇO TUBULAR", "FONTE": "AQUÍFERO BARREIRAS" }, "geometry": { "type": "Point", "coordinates": [ -35.567693086555579, -5.207172003801023 ] } },
{ "type": "Feature", "properties": { "Nome_Reque": "EDECO EMPREENDIMENTOS IMOBILIÁRIOS LTDA", "MUNICIPIO": "JOÃO CÂMARA", "NUM_LICENS": "0106\/15", "DATA_VALID": "14\/10\/2016", "TIPO_OBRA": "CANAL", "FONTE": "Sem Informação" }, "geometry": { "type": "Point", "coordinates": [ -35.786502963602878, -5.54691404841364 ] } },
{ "type": "Feature", "properties": { "Nome_Reque": "EDECO EMPREENDIMENTOS IMOBILIÁRIOS LTDA", "MUNICIPIO": "JOÃO CÂMARA", "NUM_LICENS": "0106\/15", "DATA_VALID": "14\/10\/2016", "TIPO_OBRA": "BUEIRO", "FONTE": "Sem Informação" }, "geometry": { "type": "Point", "coordinates": [ -35.786502963602878, -5.54691404841364 ] } },
{ "type": "Feature", "properties": { "Nome_Reque": "EDECO EMPREENDIMENTOS IMOBILIÁRIOS LTDA", "MUNICIPIO": "JOÃO CÂMARA", "NUM_LICENS": "0106\/15", "DATA_VALID": "14\/10\/2016", "TIPO_OBRA": "PONTILHÃO", "FONTE": "Sem Informação" }, "geometry": { "type": "Point", "coordinates": [ -35.78674449987556, -5.550337514151993 ] } },
{ "type": "Feature", "properties": { "Nome_Reque": "EDECO EMPREENDIMENTOS IMOBILIÁRIOS LTDA", "MUNICIPIO": "JOÃO CÂMARA", "NUM_LICENS": "0106\/15", "DATA_VALID": "14\/10\/2016", "TIPO_OBRA": "PONTILHÃO", "FONTE": "Sem Informação" }, "geometry": { "type": "Point", "coordinates": [ -35.78546711930435, -5.551021231366048 ] } },
{ "type": "Feature", "properties": { "Nome_Reque": "GRADUAL INCORPORAÇÕES LTDA", "MUNICIPIO": "MACAÍBA", "NUM_LICENS": "0108\/15", "DATA_VALID": "23\/10\/2016", "TIPO_OBRA": "POÇO TUBULAR", "FONTE": "AQUÍFERO BARREIRAS" }, "geometry": { "type": "Point", "coordinates": [ -35.314706801344528, -5.941826271253312 ] } },
{ "type": "Feature", "properties": { "Nome_Reque": "MARIA DO SOCORRO DOS SANTOS", "MUNICIPIO": "JOÃO CÂMARA", "NUM_LICENS": "0113\/15", "DATA_VALID": "23\/10\/2016", "TIPO_OBRA": "POÇO TUBULAR", "FONTE": "AQUÍFERO AÇU" }, "geometry": { "type": "Point", "coordinates": [ -35.899973508179578, -5.384008633343675 ] } },
{ "type": "Feature", "properties": { "Nome_Reque": "PÍRINEUS TC EMPREENDIMENTOS IMOBILIÁRIOS LTDA", "MUNICIPIO": "CEARÁ-MIRIM", "NUM_LICENS": "0117\/15", "DATA_VALID": "29\/10\/2016", "TIPO_OBRA": "POÇO TUBULAR", "FONTE": "AQUÍFERO BARREIRAS" }, "geometry": { "type": "Point", "coordinates": [ -35.446268507840564, -5.658777771795346 ] } },
{ "type": "Feature", "properties": { "Nome_Reque": "ITOGRASS AGRÍCOLA ALTA MONGIANA LTDA", "MUNICIPIO": "TOUROS", "NUM_LICENS": "0119\/15", "DATA_VALID": "12\/11\/2016", "TIPO_OBRA": "POÇO TUBULAR", "FONTE": "AQUÍFERO BARREIRAS" }, "geometry": { "type": "Point", "coordinates": [ -35.508640157925704, -5.25347675120089 ] } },
{ "type": "Feature", "properties": { "Nome_Reque": "ITOGRASS AGRÍCOLA ALTA MONGIANA LTDA", "MUNICIPIO": "TOUROS", "NUM_LICENS": "0119\/15", "DATA_VALID": "12\/11\/2016", "TIPO_OBRA": "POÇO TUBULAR", "FONTE": "AQUÍFERO BARREIRAS" }, "geometry": { "type": "Point", "coordinates": [ -35.514420497378275, -5.249277955162678 ] } },
{ "type": "Feature", "properties": { "Nome_Reque": "GRYPS EMPREENDIMENTOS IMOBILIÁRIOS S.A.", "MUNICIPIO": "CANGUARETAMA", "NUM_LICENS": "0120\/15", "DATA_VALID": "23\/11\/2016", "TIPO_OBRA": "POÇO TUBULAR", "FONTE": "AQUÍFERO BEBERIBE" }, "geometry": { "type": "Point", "coordinates": [ -35.134783499724939, -6.371647858773 ] } },
{ "type": "Feature", "properties": { "Nome_Reque": "SONIA MENDES", "MUNICIPIO": "PARAZINHO", "NUM_LICENS": "0136\/15", "DATA_VALID": "25\/11\/2016", "TIPO_OBRA": "POÇO TUBULAR", "FONTE": "AQUÍFERO JANDAÍRA" }, "geometry": { "type": "Point", "coordinates": [ -35.874994105065177, -5.283600778417399 ] } },
{ "type": "Feature", "properties": { "Nome_Reque": "MANUEL LEOTERIO FERREIRA", "MUNICIPIO": "JOÃO CÂMARA", "NUM_LICENS": "0156\/15", "DATA_VALID": "04\/12\/2016", "TIPO_OBRA": "POÇO TUBULAR", "FONTE": "AQUÍFERO JANDAÍRA" }, "geometry": { "type": "Point", "coordinates": [ -35.830128822981578, -5.316416693629003 ] } },
{ "type": "Feature", "properties": { "Nome_Reque": "TAPUIO AGROPECUÁRIA LTDA", "MUNICIPIO": "TAIPÚ", "NUM_LICENS": "0180\/15", "DATA_VALID": "16\/12\/2016", "TIPO_OBRA": "POÇO TUBULAR", "FONTE": "AQUÍFERO JANDAÍRA\/AÇU" }, "geometry": { "type": "Point", "coordinates": [ -35.604550862270969, -5.504419266747123 ] } },
{ "type": "Feature", "properties": { "Nome_Reque": "PREFEITURA MUNICIPAL DE RUY BARBOSA", "MUNICIPIO": "RUI BARBOSA", "NUM_LICENS": "0190\/15", "DATA_VALID": "23\/12\/2016", "TIPO_OBRA": "AÇUDE", "FONTE": "Sem Informação" }, "geometry": { "type": "Point", "coordinates": [ -35.948270495006007, -5.912626691107096 ] } },
{ "type": "Feature", "properties": { "Nome_Reque": "PIONEIRA AGRÍCOLA LTDA-ME", "MUNICIPIO": "PUREZA", "NUM_LICENS": "0004\/16", "DATA_VALID": "19\/01\/2017", "TIPO_OBRA": "POÇO TUBULAR", "FONTE": "AQUÍFERO JANDAÍRA" }, "geometry": { "type": "Point", "coordinates": [ -35.603737153414734, -5.359094554351045 ] } },
{ "type": "Feature", "properties": { "Nome_Reque": "PIONEIRA AGRÍCOLA LTDA-ME", "MUNICIPIO": "PUREZA", "NUM_LICENS": "0004\/16", "DATA_VALID": "19\/01\/2017", "TIPO_OBRA": "POÇO TUBULAR", "FONTE": "AQUÍFERO JANDAÍRA" }, "geometry": { "type": "Point", "coordinates": [ -35.609416501618753, -5.360941060134254 ] } },
{ "type": "Feature", "properties": { "Nome_Reque": "PIONEIRA AGRÍCOLA LTDA-ME", "MUNICIPIO": "PUREZA", "NUM_LICENS": "0004\/16", "DATA_VALID": "19\/01\/2017", "TIPO_OBRA": "POÇO TUBULAR", "FONTE": "AQUÍFERO JANDAÍRA" }, "geometry": { "type": "Point", "coordinates": [ -35.607164627484636, -5.363607620216171 ] } },
{ "type": "Feature", "properties": { "Nome_Reque": "PIONEIRA AGRÍCOLA LTDA-ME", "MUNICIPIO": "PUREZA", "NUM_LICENS": "0004\/16", "DATA_VALID": "19\/01\/2017", "TIPO_OBRA": "POÇO TUBULAR", "FONTE": "AQUÍFERO JANDAÍRA" }, "geometry": { "type": "Point", "coordinates": [ -35.606581315206931, -5.360013278170585 ] } },
{ "type": "Feature", "properties": { "Nome_Reque": "PIONEIRA AGRÍCOLA LTDA-ME", "MUNICIPIO": "PUREZA", "NUM_LICENS": "0004\/16", "DATA_VALID": "19\/01\/2017", "TIPO_OBRA": "POÇO TUBULAR", "FONTE": "AQUÍFERO JANDAÍRA" }, "geometry": { "type": "Point", "coordinates": [ -35.60711904557062, -5.363490330323416 ] } },
{ "type": "Feature", "properties": { "Nome_Reque": "PIONEIRA AGRÍCOLA LTDA-ME", "MUNICIPIO": "PUREZA", "NUM_LICENS": "0004\/16", "DATA_VALID": "19\/01\/2017", "TIPO_OBRA": "POÇO TUBULAR", "FONTE": "AQUÍFERO JANDAÍRA" }, "geometry": { "type": "Point", "coordinates": [ -35.60712204431703, -5.366318979106337 ] } },
{ "type": "Feature", "properties": { "Nome_Reque": "GESTUR ADMINISTRAÇÃO DE IMÓVEIS LTDA", "MUNICIPIO": "NÍSIA FLORESTA", "NUM_LICENS": "0005\/16", "DATA_VALID": "11\/01\/2017", "TIPO_OBRA": "POÇO TUBULAR", "FONTE": "AQUÍFERO BARREIRAS" }, "geometry": { "type": "Point", "coordinates": [ -35.163329199555626, -5.964307488095522 ] } },
{ "type": "Feature", "properties": { "Nome_Reque": "NAZARENO COSTA NETO", "MUNICIPIO": "MAXARANGUAPE", "NUM_LICENS": "0011\/16", "DATA_VALID": "21\/01\/2017", "TIPO_OBRA": "POÇO TUBULAR", "FONTE": "AQUÍFERO BARREIRAS" }, "geometry": { "type": "Point", "coordinates": [ -35.344121030679759, -5.547514303258458 ] } },
{ "type": "Feature", "properties": { "Nome_Reque": "ESPACIAL EMPREENDIMENTOS IMOBILIÁRIOS LTDA", "MUNICIPIO": "PARAZINHO", "NUM_LICENS": "0014\/16", "DATA_VALID": "26\/01\/2017", "TIPO_OBRA": "POÇO TUBULAR", "FONTE": "AQUÍFERO BARREIRAS" }, "geometry": { "type": "Point", "coordinates": [ -35.227855813710846, -5.916610275615155 ] } },
{ "type": "Feature", "properties": { "Nome_Reque": "ECOMAX NATAL SUL EMPREENDIMENTOS IMOBILIÁRIOS LTDA", "MUNICIPIO": "NÍSIA FLORESTA", "NUM_LICENS": "0015\/16", "DATA_VALID": "26\/01\/2017", "TIPO_OBRA": "POÇO TUBULAR", "FONTE": "AQUÍFERO BARREIRAS" }, "geometry": { "type": "Point", "coordinates": [ -35.214443583884538, -5.955832929974013 ] } },
{ "type": "Feature", "properties": { "Nome_Reque": "Maria Alzenar Santiago", "MUNICIPIO": "BARAÚNA", "NUM_LICENS": "1724\/12", "DATA_VALID": "20\/08\/2016", "TIPO_OBRA": "Poço Tubular", "FONTE": "Sem Informação" }, "geometry": { "type": "Point", "coordinates": [ -37.631006351673243, -5.116809762947347 ] } },
{ "type": "Feature", "properties": { "Nome_Reque": "Izac Abreu Júnior", "MUNICIPIO": "BARAÚNA", "NUM_LICENS": "1725\/12", "DATA_VALID": "20\/08\/2016", "TIPO_OBRA": "Poço Tubular", "FONTE": "Sem Informação" }, "geometry": { "type": "Point", "coordinates": [ -37.643310214341241, -5.150633644070105 ] } },
{ "type": "Feature", "properties": { "Nome_Reque": "José Jailson Costa", "MUNICIPIO": "GOV. DIX-SEPT. ROSADO", "NUM_LICENS": "1726\/12", "DATA_VALID": "20\/08\/2016", "TIPO_OBRA": "Poço Tubular", "FONTE": "Sem Informação" }, "geometry": { "type": "Point", "coordinates": [ -37.632650793879257, -5.35223782719615 ] } },
{ "type": "Feature", "properties": { "Nome_Reque": "Departamento Nacional de Infraestrutura de Transportes - DNIT", "MUNICIPIO": "AREIA BRANCA, MOSSORÓ, UPANEMA E CAMPO GRANDE", "NUM_LICENS": "0002\/13", "DATA_VALID": "22\/03\/2017", "TIPO_OBRA": "Bueiros e Pontes", "FONTE": "Sem Informação" }, "geometry": { "type": "Point", "coordinates": [ -37.33166222088763, -5.238041949356108 ] } },
{ "type": "Feature", "properties": { "Nome_Reque": "DNIT - 146 pontos", "MUNICIPIO": "AREIA BRANCA, MOSSORÓ, UPANEMA E CAMPO GRANDE", "NUM_LICENS": "0002\/13", "DATA_VALID": "22\/03\/2017", "TIPO_OBRA": "Bueiros e Pontes", "FONTE": "Sem Informação" }, "geometry": { "type": "Point", "coordinates": [ -37.331663047010252, -5.254707754582388 ] } },
{ "type": "Feature", "properties": { "Nome_Reque": "DNIT - 146 pontos", "MUNICIPIO": "AREIA BRANCA, MOSSORÓ, UPANEMA E CAMPO GRANDE", "NUM_LICENS": "0002\/13", "DATA_VALID": "22\/03\/2017", "TIPO_OBRA": "Bueiros e Pontes", "FONTE": "Sem Informação" }, "geometry": { "type": "Point", "coordinates": [ -37.331388264401866, -5.263044438434961 ] } },
{ "type": "Feature", "properties": { "Nome_Reque": "DNIT - 146 pontos", "MUNICIPIO": "AREIA BRANCA, MOSSORÓ, UPANEMA E CAMPO GRANDE", "NUM_LICENS": "0002\/13", "DATA_VALID": "22\/03\/2017", "TIPO_OBRA": "Bueiros e Pontes", "FONTE": "Sem Informação" }, "geometry": { "type": "Point", "coordinates": [ -37.33110963340669, -5.269427873684224 ] } },
{ "type": "Feature", "properties": { "Nome_Reque": "DNIT - 146 pontos", "MUNICIPIO": "AREIA BRANCA, MOSSORÓ, UPANEMA E CAMPO GRANDE", "NUM_LICENS": "0002\/13", "DATA_VALID": "22\/03\/2017", "TIPO_OBRA": "Bueiros e Pontes", "FONTE": "Sem Informação" }, "geometry": { "type": "Point", "coordinates": [ -37.331106048446387, -5.274148178918289 ] } },
{ "type": "Feature", "properties": { "Nome_Reque": "DNIT - 146 pontos", "MUNICIPIO": "AREIA BRANCA, MOSSORÓ, UPANEMA E CAMPO GRANDE", "NUM_LICENS": "0002\/13", "DATA_VALID": "22\/03\/2017", "TIPO_OBRA": "Bueiros e Pontes", "FONTE": "Sem Informação" }, "geometry": { "type": "Point", "coordinates": [ -37.331106248896603, -5.280821726922143 ] } },
{ "type": "Feature", "properties": { "Nome_Reque": "DNIT - 146 pontos", "MUNICIPIO": "AREIA BRANCA, MOSSORÓ, UPANEMA E CAMPO GRANDE", "NUM_LICENS": "0002\/13", "DATA_VALID": "22\/03\/2017", "TIPO_OBRA": "Bueiros e Pontes", "FONTE": "Sem Informação" }, "geometry": { "type": "Point", "coordinates": [ -37.330554109422167, -5.294981176398446 ] } },
{ "type": "Feature", "properties": { "Nome_Reque": "DNIT - 146 pontos", "MUNICIPIO": "AREIA BRANCA, MOSSORÓ, UPANEMA E CAMPO GRANDE", "NUM_LICENS": "0002\/13", "DATA_VALID": "22\/03\/2017", "TIPO_OBRA": "Bueiros e Pontes", "FONTE": "Sem Informação" }, "geometry": { "type": "Point", "coordinates": [ -37.330276810490346, -5.300822037485353 ] } },
{ "type": "Feature", "properties": { "Nome_Reque": "DNIT - 146 pontos", "MUNICIPIO": "AREIA BRANCA, MOSSORÓ, UPANEMA E CAMPO GRANDE", "NUM_LICENS": "0002\/13", "DATA_VALID": "22\/03\/2017", "TIPO_OBRA": "Bueiros e Pontes", "FONTE": "Sem Informação" }, "geometry": { "type": "Point", "coordinates": [ -37.330002645269033, -5.3155428683446 ] } },
{ "type": "Feature", "properties": { "Nome_Reque": "DNIT - 146 pontos", "MUNICIPIO": "AREIA BRANCA, MOSSORÓ, UPANEMA E CAMPO GRANDE", "NUM_LICENS": "0002\/13", "DATA_VALID": "22\/03\/2017", "TIPO_OBRA": "Bueiros e Pontes", "FONTE": "Sem Informação" }, "geometry": { "type": "Point", "coordinates": [ -37.329723050964738, -5.322206603272355 ] } },
{ "type": "Feature", "properties": { "Nome_Reque": "DNIT - 146 pontos", "MUNICIPIO": "AREIA BRANCA, MOSSORÓ, UPANEMA E CAMPO GRANDE", "NUM_LICENS": "0002\/13", "DATA_VALID": "22\/03\/2017", "TIPO_OBRA": "Bueiros e Pontes", "FONTE": "Sem Informação" }, "geometry": { "type": "Point", "coordinates": [ -37.329716324879989, -5.328039144730813 ] } },
{ "type": "Feature", "properties": { "Nome_Reque": "DNIT - 146 pontos", "MUNICIPIO": "AREIA BRANCA, MOSSORÓ, UPANEMA E CAMPO GRANDE", "NUM_LICENS": "0002\/13", "DATA_VALID": "22\/03\/2017", "TIPO_OBRA": "Bueiros e Pontes", "FONTE": "Sem Informação" }, "geometry": { "type": "Point", "coordinates": [ -37.329723098917455, -5.328871094031848 ] } },
{ "type": "Feature", "properties": { "Nome_Reque": "DNIT - 146 pontos", "MUNICIPIO": "AREIA BRANCA, MOSSORÓ, UPANEMA E CAMPO GRANDE", "NUM_LICENS": "0002\/13", "DATA_VALID": "22\/03\/2017", "TIPO_OBRA": "Bueiros e Pontes", "FONTE": "Sem Informação" }, "geometry": { "type": "Point", "coordinates": [ -37.330001255023596, -5.329432498183885 ] } },
{ "type": "Feature", "properties": { "Nome_Reque": "DNIT - 146 pontos", "MUNICIPIO": "AREIA BRANCA, MOSSORÓ, UPANEMA E CAMPO GRANDE", "NUM_LICENS": "0002\/13", "DATA_VALID": "22\/03\/2017", "TIPO_OBRA": "Bueiros e Pontes", "FONTE": "Sem Informação" }, "geometry": { "type": "Point", "coordinates": [ -37.329720093436322, -5.32998334130321 ] } },
{ "type": "Feature", "properties": { "Nome_Reque": "DNIT - 146 pontos", "MUNICIPIO": "AREIA BRANCA, MOSSORÓ, UPANEMA E CAMPO GRANDE", "NUM_LICENS": "0002\/13", "DATA_VALID": "22\/03\/2017", "TIPO_OBRA": "Bueiros e Pontes", "FONTE": "Sem Informação" }, "geometry": { "type": "Point", "coordinates": [ -37.329163752571702, -5.335543105594847 ] } },
{ "type": "Feature", "properties": { "Nome_Reque": "DNIT - 146 pontos", "MUNICIPIO": "AREIA BRANCA, MOSSORÓ, UPANEMA E CAMPO GRANDE", "NUM_LICENS": "0002\/13", "DATA_VALID": "22\/03\/2017", "TIPO_OBRA": "Bueiros e Pontes", "FONTE": "Sem Informação" }, "geometry": { "type": "Point", "coordinates": [ -37.328883968836223, -5.35554483914852 ] } },
{ "type": "Feature", "properties": { "Nome_Reque": "DNIT - 146 pontos", "MUNICIPIO": "AREIA BRANCA, MOSSORÓ, UPANEMA E CAMPO GRANDE", "NUM_LICENS": "0002\/13", "DATA_VALID": "22\/03\/2017", "TIPO_OBRA": "Bueiros e Pontes", "FONTE": "Sem Informação" }, "geometry": { "type": "Point", "coordinates": [ -37.328335640350083, -5.371377130384978 ] } },
{ "type": "Feature", "properties": { "Nome_Reque": "DNIT - 146 pontos", "MUNICIPIO": "AREIA BRANCA, MOSSORÓ, UPANEMA E CAMPO GRANDE", "NUM_LICENS": "0002\/13", "DATA_VALID": "22\/03\/2017", "TIPO_OBRA": "Bueiros e Pontes", "FONTE": "Sem Informação" }, "geometry": { "type": "Point", "coordinates": [ -37.327775009409748, -5.391649337793914 ] } },
{ "type": "Feature", "properties": { "Nome_Reque": "DNIT - 146 pontos", "MUNICIPIO": "AREIA BRANCA, MOSSORÓ, UPANEMA E CAMPO GRANDE", "NUM_LICENS": "0002\/13", "DATA_VALID": "22\/03\/2017", "TIPO_OBRA": "Bueiros e Pontes", "FONTE": "Sem Informação" }, "geometry": { "type": "Point", "coordinates": [ -37.327498528710215, -5.40693073738885 ] } },
{ "type": "Feature", "properties": { "Nome_Reque": "DNIT - 146 pontos", "MUNICIPIO": "AREIA BRANCA, MOSSORÓ, UPANEMA E CAMPO GRANDE", "NUM_LICENS": "0002\/13", "DATA_VALID": "22\/03\/2017", "TIPO_OBRA": "Bueiros e Pontes", "FONTE": "Sem Informação" }, "geometry": { "type": "Point", "coordinates": [ -37.327217498741255, -5.42053921519565 ] } },
{ "type": "Feature", "properties": { "Nome_Reque": "DNIT - 146 pontos", "MUNICIPIO": "AREIA BRANCA, MOSSORÓ, UPANEMA E CAMPO GRANDE", "NUM_LICENS": "0002\/13", "DATA_VALID": "22\/03\/2017", "TIPO_OBRA": "Bueiros e Pontes", "FONTE": "Sem Informação" }, "geometry": { "type": "Point", "coordinates": [ -37.327219624980728, -5.423044046399177 ] } },
{ "type": "Feature", "properties": { "Nome_Reque": "DNIT - 146 pontos", "MUNICIPIO": "AREIA BRANCA, MOSSORÓ, UPANEMA E CAMPO GRANDE", "NUM_LICENS": "0002\/13", "DATA_VALID": "22\/03\/2017", "TIPO_OBRA": "Bueiros e Pontes", "FONTE": "Sem Informação" }, "geometry": { "type": "Point", "coordinates": [ -37.326938672359127, -5.446373398822614 ] } },
{ "type": "Feature", "properties": { "Nome_Reque": "DNIT - 146 pontos", "MUNICIPIO": "AREIA BRANCA, MOSSORÓ, UPANEMA E CAMPO GRANDE", "NUM_LICENS": "0002\/13", "DATA_VALID": "22\/03\/2017", "TIPO_OBRA": "Bueiros e Pontes", "FONTE": "Sem Informação" }, "geometry": { "type": "Point", "coordinates": [ -37.32638924391334, -5.465542348578059 ] } },
{ "type": "Feature", "properties": { "Nome_Reque": "DNIT - 146 pontos", "MUNICIPIO": "AREIA BRANCA, MOSSORÓ, UPANEMA E CAMPO GRANDE", "NUM_LICENS": "0002\/13", "DATA_VALID": "22\/03\/2017", "TIPO_OBRA": "Bueiros e Pontes", "FONTE": "Sem Informação" }, "geometry": { "type": "Point", "coordinates": [ -37.326387711967286, -5.466093947472175 ] } },
{ "type": "Feature", "properties": { "Nome_Reque": "DNIT - 146 pontos", "MUNICIPIO": "AREIA BRANCA, MOSSORÓ, UPANEMA E CAMPO GRANDE", "NUM_LICENS": "0002\/13", "DATA_VALID": "22\/03\/2017", "TIPO_OBRA": "Bueiros e Pontes", "FONTE": "Sem Informação" }, "geometry": { "type": "Point", "coordinates": [ -37.326383843733126, -5.46748650856779 ] } },
{ "type": "Feature", "properties": { "Nome_Reque": "DNIT - 146 pontos", "MUNICIPIO": "AREIA BRANCA, MOSSORÓ, UPANEMA E CAMPO GRANDE", "NUM_LICENS": "0002\/13", "DATA_VALID": "22\/03\/2017", "TIPO_OBRA": "Bueiros e Pontes", "FONTE": "Sem Informação" }, "geometry": { "type": "Point", "coordinates": [ -37.326391334911641, -5.468038132601597 ] } },
{ "type": "Feature", "properties": { "Nome_Reque": "DNIT - 146 pontos", "MUNICIPIO": "AREIA BRANCA, MOSSORÓ, UPANEMA E CAMPO GRANDE", "NUM_LICENS": "0002\/13", "DATA_VALID": "22\/03\/2017", "TIPO_OBRA": "Bueiros e Pontes", "FONTE": "Sem Informação" }, "geometry": { "type": "Point", "coordinates": [ -37.326387760186833, -5.47581482156277 ] } },
{ "type": "Feature", "properties": { "Nome_Reque": "DNIT - 146 pontos", "MUNICIPIO": "AREIA BRANCA, MOSSORÓ, UPANEMA E CAMPO GRANDE", "NUM_LICENS": "0002\/13", "DATA_VALID": "22\/03\/2017", "TIPO_OBRA": "Bueiros e Pontes", "FONTE": "Sem Informação" }, "geometry": { "type": "Point", "coordinates": [ -37.326105950653734, -5.483039127313888 ] } },
{ "type": "Feature", "properties": { "Nome_Reque": "DNIT - 146 pontos", "MUNICIPIO": "AREIA BRANCA, MOSSORÓ, UPANEMA E CAMPO GRANDE", "NUM_LICENS": "0002\/13", "DATA_VALID": "22\/03\/2017", "TIPO_OBRA": "Bueiros e Pontes", "FONTE": "Sem Informação" }, "geometry": { "type": "Point", "coordinates": [ -37.323887231567866, -5.546928278998425 ] } },
{ "type": "Feature", "properties": { "Nome_Reque": "DNIT - 146 pontos", "MUNICIPIO": "AREIA BRANCA, MOSSORÓ, UPANEMA E CAMPO GRANDE", "NUM_LICENS": "0002\/13", "DATA_VALID": "22\/03\/2017", "TIPO_OBRA": "Bueiros e Pontes", "FONTE": "Sem Informação" }, "geometry": { "type": "Point", "coordinates": [ -37.323606669557414, -5.547207805631188 ] } },
{ "type": "Feature", "properties": { "Nome_Reque": "DNIT - 146 pontos", "MUNICIPIO": "AREIA BRANCA, MOSSORÓ, UPANEMA E CAMPO GRANDE", "NUM_LICENS": "0002\/13", "DATA_VALID": "22\/03\/2017", "TIPO_OBRA": "Bueiros e Pontes", "FONTE": "Sem Informação" }, "geometry": { "type": "Point", "coordinates": [ -37.318055314088504, -5.566651743346718 ] } },
{ "type": "Feature", "properties": { "Nome_Reque": "DNIT - 146 pontos", "MUNICIPIO": "AREIA BRANCA, MOSSORÓ, UPANEMA E CAMPO GRANDE", "NUM_LICENS": "0002\/13", "DATA_VALID": "22\/03\/2017", "TIPO_OBRA": "Bueiros e Pontes", "FONTE": "Sem Informação" }, "geometry": { "type": "Point", "coordinates": [ -37.315833060287126, -5.57054275682514 ] } },
{ "type": "Feature", "properties": { "Nome_Reque": "DNIT - 146 pontos", "MUNICIPIO": "AREIA BRANCA, MOSSORÓ, UPANEMA E CAMPO GRANDE", "NUM_LICENS": "0002\/13", "DATA_VALID": "22\/03\/2017", "TIPO_OBRA": "Bueiros e Pontes", "FONTE": "Sem Informação" }, "geometry": { "type": "Point", "coordinates": [ -37.304440499947304, -5.587202601929122 ] } },
{ "type": "Feature", "properties": { "Nome_Reque": "DNIT - 146 pontos", "MUNICIPIO": "AREIA BRANCA, MOSSORÓ, UPANEMA E CAMPO GRANDE", "NUM_LICENS": "0002\/13", "DATA_VALID": "22\/03\/2017", "TIPO_OBRA": "Bueiros e Pontes", "FONTE": "Sem Informação" }, "geometry": { "type": "Point", "coordinates": [ -37.302500239206502, -5.59026241424619 ] } },
{ "type": "Feature", "properties": { "Nome_Reque": "DNIT - 146 pontos", "MUNICIPIO": "AREIA BRANCA, MOSSORÓ, UPANEMA E CAMPO GRANDE", "NUM_LICENS": "0002\/13", "DATA_VALID": "22\/03\/2017", "TIPO_OBRA": "Bueiros e Pontes", "FONTE": "Sem Informação" }, "geometry": { "type": "Point", "coordinates": [ -37.294998018805508, -5.597203388154984 ] } },
{ "type": "Feature", "properties": { "Nome_Reque": "DNIT - 146 pontos", "MUNICIPIO": "AREIA BRANCA, MOSSORÓ, UPANEMA E CAMPO GRANDE", "NUM_LICENS": "0002\/13", "DATA_VALID": "22\/03\/2017", "TIPO_OBRA": "Bueiros e Pontes", "FONTE": "Sem Informação" }, "geometry": { "type": "Point", "coordinates": [ -37.29444665149034, -5.597482101348056 ] } },
{ "type": "Feature", "properties": { "Nome_Reque": "DNIT - 146 pontos", "MUNICIPIO": "AREIA BRANCA, MOSSORÓ, UPANEMA E CAMPO GRANDE", "NUM_LICENS": "0002\/13", "DATA_VALID": "22\/03\/2017", "TIPO_OBRA": "Bueiros e Pontes", "FONTE": "Sem Informação" }, "geometry": { "type": "Point", "coordinates": [ -37.294166861314714, -5.597481287142093 ] } },
{ "type": "Feature", "properties": { "Nome_Reque": "DNIT - 146 pontos", "MUNICIPIO": "AREIA BRANCA, MOSSORÓ, UPANEMA E CAMPO GRANDE", "NUM_LICENS": "0002\/13", "DATA_VALID": "22\/03\/2017", "TIPO_OBRA": "Bueiros e Pontes", "FONTE": "Sem Informação" }, "geometry": { "type": "Point", "coordinates": [ -37.29138294190976, -5.598874762428512 ] } },
{ "type": "Feature", "properties": { "Nome_Reque": "DNIT - 146 pontos", "MUNICIPIO": "AREIA BRANCA, MOSSORÓ, UPANEMA E CAMPO GRANDE", "NUM_LICENS": "0002\/13", "DATA_VALID": "22\/03\/2017", "TIPO_OBRA": "Bueiros e Pontes", "FONTE": "Sem Informação" }, "geometry": { "type": "Point", "coordinates": [ -37.289997177295319, -5.600543577191758 ] } },
{ "type": "Feature", "properties": { "Nome_Reque": "DNIT - 146 pontos", "MUNICIPIO": "AREIA BRANCA, MOSSORÓ, UPANEMA E CAMPO GRANDE", "NUM_LICENS": "0002\/13", "DATA_VALID": "22\/03\/2017", "TIPO_OBRA": "Bueiros e Pontes", "FONTE": "Sem Informação" }, "geometry": { "type": "Point", "coordinates": [ -37.288882986380017, -5.601932863348684 ] } },
{ "type": "Feature", "properties": { "Nome_Reque": "DNIT - 146 pontos", "MUNICIPIO": "AREIA BRANCA, MOSSORÓ, UPANEMA E CAMPO GRANDE", "NUM_LICENS": "0002\/13", "DATA_VALID": "22\/03\/2017", "TIPO_OBRA": "Bueiros e Pontes", "FONTE": "Sem Informação" }, "geometry": { "type": "Point", "coordinates": [ -37.287777815389248, -5.60332217210518 ] } },
{ "type": "Feature", "properties": { "Nome_Reque": "DNIT - 146 pontos", "MUNICIPIO": "AREIA BRANCA, MOSSORÓ, UPANEMA E CAMPO GRANDE", "NUM_LICENS": "0002\/13", "DATA_VALID": "22\/03\/2017", "TIPO_OBRA": "Bueiros e Pontes", "FONTE": "Sem Informação" }, "geometry": { "type": "Point", "coordinates": [ -37.285277846202035, -5.606371203299075 ] } },
{ "type": "Feature", "properties": { "Nome_Reque": "DNIT - 146 pontos", "MUNICIPIO": "AREIA BRANCA, MOSSORÓ, UPANEMA E CAMPO GRANDE", "NUM_LICENS": "0002\/13", "DATA_VALID": "22\/03\/2017", "TIPO_OBRA": "Bueiros e Pontes", "FONTE": "Sem Informação" }, "geometry": { "type": "Point", "coordinates": [ -37.283057617216571, -5.609430079302976 ] } },
{ "type": "Feature", "properties": { "Nome_Reque": "DNIT - 146 pontos", "MUNICIPIO": "AREIA BRANCA, MOSSORÓ, UPANEMA E CAMPO GRANDE", "NUM_LICENS": "0002\/13", "DATA_VALID": "22\/03\/2017", "TIPO_OBRA": "Bueiros e Pontes", "FONTE": "Sem Informação" }, "geometry": { "type": "Point", "coordinates": [ -37.28194421115014, -5.610539028760263 ] } },
{ "type": "Feature", "properties": { "Nome_Reque": "DNIT - 146 pontos", "MUNICIPIO": "AREIA BRANCA, MOSSORÓ, UPANEMA E CAMPO GRANDE", "NUM_LICENS": "0002\/13", "DATA_VALID": "22\/03\/2017", "TIPO_OBRA": "Bueiros e Pontes", "FONTE": "Sem Informação" }, "geometry": { "type": "Point", "coordinates": [ -37.279442532726975, -5.61414864061453 ] } },
{ "type": "Feature", "properties": { "Nome_Reque": "DNIT - 146 pontos", "MUNICIPIO": "AREIA BRANCA, MOSSORÓ, UPANEMA E CAMPO GRANDE", "NUM_LICENS": "0002\/13", "DATA_VALID": "22\/03\/2017", "TIPO_OBRA": "Bueiros e Pontes", "FONTE": "Sem Informação" }, "geometry": { "type": "Point", "coordinates": [ -37.277776896994041, -5.615816580126024 ] } },
{ "type": "Feature", "properties": { "Nome_Reque": "DNIT - 146 pontos", "MUNICIPIO": "AREIA BRANCA, MOSSORÓ, UPANEMA E CAMPO GRANDE", "NUM_LICENS": "0002\/13", "DATA_VALID": "22\/03\/2017", "TIPO_OBRA": "Bueiros e Pontes", "FONTE": "Sem Informação" }, "geometry": { "type": "Point", "coordinates": [ -37.27639022463741, -5.617765649655373 ] } },
{ "type": "Feature", "properties": { "Nome_Reque": "DNIT - 146 pontos", "MUNICIPIO": "AREIA BRANCA, MOSSORÓ, UPANEMA E CAMPO GRANDE", "NUM_LICENS": "0002\/13", "DATA_VALID": "22\/03\/2017", "TIPO_OBRA": "Bueiros e Pontes", "FONTE": "Sem Informação" }, "geometry": { "type": "Point", "coordinates": [ -37.273608676295481, -5.621374389393797 ] } },
{ "type": "Feature", "properties": { "Nome_Reque": "DNIT - 146 pontos", "MUNICIPIO": "AREIA BRANCA, MOSSORÓ, UPANEMA E CAMPO GRANDE", "NUM_LICENS": "0002\/13", "DATA_VALID": "22\/03\/2017", "TIPO_OBRA": "Bueiros e Pontes", "FONTE": "Sem Informação" }, "geometry": { "type": "Point", "coordinates": [ -37.272222801285189, -5.623043129025036 ] } },
{ "type": "Feature", "properties": { "Nome_Reque": "DNIT - 146 pontos", "MUNICIPIO": "AREIA BRANCA, MOSSORÓ, UPANEMA E CAMPO GRANDE", "NUM_LICENS": "0002\/13", "DATA_VALID": "22\/03\/2017", "TIPO_OBRA": "Bueiros e Pontes", "FONTE": "Sem Informação" }, "geometry": { "type": "Point", "coordinates": [ -37.27166074791014, -5.62387336323332 ] } },
{ "type": "Feature", "properties": { "Nome_Reque": "DNIT - 146 pontos", "MUNICIPIO": "AREIA BRANCA, MOSSORÓ, UPANEMA E CAMPO GRANDE", "NUM_LICENS": "0002\/13", "DATA_VALID": "22\/03\/2017", "TIPO_OBRA": "Bueiros e Pontes", "FONTE": "Sem Informação" }, "geometry": { "type": "Point", "coordinates": [ -37.269160568902414, -5.626931313097698 ] } },
{ "type": "Feature", "properties": { "Nome_Reque": "DNIT - 146 pontos", "MUNICIPIO": "AREIA BRANCA, MOSSORÓ, UPANEMA E CAMPO GRANDE", "NUM_LICENS": "0002\/13", "DATA_VALID": "22\/03\/2017", "TIPO_OBRA": "Bueiros e Pontes", "FONTE": "Sem Informação" }, "geometry": { "type": "Point", "coordinates": [ -37.266940994277981, -5.629709765517487 ] } },
{ "type": "Feature", "properties": { "Nome_Reque": "DNIT - 146 pontos", "MUNICIPIO": "AREIA BRANCA, MOSSORÓ, UPANEMA E CAMPO GRANDE", "NUM_LICENS": "0002\/13", "DATA_VALID": "22\/03\/2017", "TIPO_OBRA": "Bueiros e Pontes", "FONTE": "Sem Informação" }, "geometry": { "type": "Point", "coordinates": [ -37.264439957154956, -5.633038947103326 ] } },
{ "type": "Feature", "properties": { "Nome_Reque": "DNIT - 146 pontos", "MUNICIPIO": "AREIA BRANCA, MOSSORÓ, UPANEMA E CAMPO GRANDE", "NUM_LICENS": "0002\/13", "DATA_VALID": "22\/03\/2017", "TIPO_OBRA": "Bueiros e Pontes", "FONTE": "Sem Informação" }, "geometry": { "type": "Point", "coordinates": [ -37.264168347999522, -5.633318450278754 ] } },
{ "type": "Feature", "properties": { "Nome_Reque": "DNIT - 146 pontos", "MUNICIPIO": "AREIA BRANCA, MOSSORÓ, UPANEMA E CAMPO GRANDE", "NUM_LICENS": "0002\/13", "DATA_VALID": "22\/03\/2017", "TIPO_OBRA": "Bueiros e Pontes", "FONTE": "Sem Informação" }, "geometry": { "type": "Point", "coordinates": [ -37.263054024816505, -5.634707647736462 ] } },
{ "type": "Feature", "properties": { "Nome_Reque": "DNIT - 146 pontos", "MUNICIPIO": "AREIA BRANCA, MOSSORÓ, UPANEMA E CAMPO GRANDE", "NUM_LICENS": "0002\/13", "DATA_VALID": "22\/03\/2017", "TIPO_OBRA": "Bueiros e Pontes", "FONTE": "Sem Informação" }, "geometry": { "type": "Point", "coordinates": [ -37.261668084108166, -5.636376342537333 ] } },
{ "type": "Feature", "properties": { "Nome_Reque": "DNIT - 146 pontos", "MUNICIPIO": "AREIA BRANCA, MOSSORÓ, UPANEMA E CAMPO GRANDE", "NUM_LICENS": "0002\/13", "DATA_VALID": "22\/03\/2017", "TIPO_OBRA": "Bueiros e Pontes", "FONTE": "Sem Informação" }, "geometry": { "type": "Point", "coordinates": [ -37.258891052488174, -5.647481045074546 ] } },
{ "type": "Feature", "properties": { "Nome_Reque": "DNIT - 146 pontos", "MUNICIPIO": "AREIA BRANCA, MOSSORÓ, UPANEMA E CAMPO GRANDE", "NUM_LICENS": "0002\/13", "DATA_VALID": "22\/03\/2017", "TIPO_OBRA": "Bueiros e Pontes", "FONTE": "Sem Informação" }, "geometry": { "type": "Point", "coordinates": [ -37.258889378387103, -5.648041663312241 ] } },
{ "type": "Feature", "properties": { "Nome_Reque": "DNIT - 146 pontos", "MUNICIPIO": "AREIA BRANCA, MOSSORÓ, UPANEMA E CAMPO GRANDE", "NUM_LICENS": "0002\/13", "DATA_VALID": "22\/03\/2017", "TIPO_OBRA": "Bueiros e Pontes", "FONTE": "Sem Informação" }, "geometry": { "type": "Point", "coordinates": [ -37.261105295086104, -5.661647948041391 ] } },
{ "type": "Feature", "properties": { "Nome_Reque": "DNIT - 146 pontos", "MUNICIPIO": "AREIA BRANCA, MOSSORÓ, UPANEMA E CAMPO GRANDE", "NUM_LICENS": "0002\/13", "DATA_VALID": "22\/03\/2017", "TIPO_OBRA": "Bueiros e Pontes", "FONTE": "Sem Informação" }, "geometry": { "type": "Point", "coordinates": [ -37.261389974312038, -5.663041319109715 ] } },
{ "type": "Feature", "properties": { "Nome_Reque": "DNIT - 146 pontos", "MUNICIPIO": "AREIA BRANCA, MOSSORÓ, UPANEMA E CAMPO GRANDE", "NUM_LICENS": "0002\/13", "DATA_VALID": "22\/03\/2017", "TIPO_OBRA": "Bueiros e Pontes", "FONTE": "Sem Informação" }, "geometry": { "type": "Point", "coordinates": [ -37.261940469890206, -5.666099274876317 ] } },
{ "type": "Feature", "properties": { "Nome_Reque": "DNIT - 146 pontos", "MUNICIPIO": "AREIA BRANCA, MOSSORÓ, UPANEMA E CAMPO GRANDE", "NUM_LICENS": "0002\/13", "DATA_VALID": "22\/03\/2017", "TIPO_OBRA": "Bueiros e Pontes", "FONTE": "Sem Informação" }, "geometry": { "type": "Point", "coordinates": [ -37.262216150790167, -5.667483577282189 ] } },
{ "type": "Feature", "properties": { "Nome_Reque": "DNIT - 146 pontos", "MUNICIPIO": "AREIA BRANCA, MOSSORÓ, UPANEMA E CAMPO GRANDE", "NUM_LICENS": "0002\/13", "DATA_VALID": "22\/03\/2017", "TIPO_OBRA": "Bueiros e Pontes", "FONTE": "Sem Informação" }, "geometry": { "type": "Point", "coordinates": [ -37.26333198903356, -5.671655437336668 ] } },
{ "type": "Feature", "properties": { "Nome_Reque": "DNIT - 146 pontos", "MUNICIPIO": "AREIA BRANCA, MOSSORÓ, UPANEMA E CAMPO GRANDE", "NUM_LICENS": "0002\/13", "DATA_VALID": "22\/03\/2017", "TIPO_OBRA": "Bueiros e Pontes", "FONTE": "Sem Informação" }, "geometry": { "type": "Point", "coordinates": [ -37.264168038627794, -5.675817417252503 ] } },
{ "type": "Feature", "properties": { "Nome_Reque": "DNIT - 146 pontos", "MUNICIPIO": "AREIA BRANCA, MOSSORÓ, UPANEMA E CAMPO GRANDE", "NUM_LICENS": "0002\/13", "DATA_VALID": "22\/03\/2017", "TIPO_OBRA": "Bueiros e Pontes", "FONTE": "Sem Informação" }, "geometry": { "type": "Point", "coordinates": [ -37.264719380085651, -5.678595067591767 ] } },
{ "type": "Feature", "properties": { "Nome_Reque": "DNIT - 146 pontos", "MUNICIPIO": "AREIA BRANCA, MOSSORÓ, UPANEMA E CAMPO GRANDE", "NUM_LICENS": "0002\/13", "DATA_VALID": "22\/03\/2017", "TIPO_OBRA": "Bueiros e Pontes", "FONTE": "Sem Informação" }, "geometry": { "type": "Point", "coordinates": [ -37.265557924980499, -5.68192516355865 ] } },
{ "type": "Feature", "properties": { "Nome_Reque": "DNIT - 146 pontos", "MUNICIPIO": "AREIA BRANCA, MOSSORÓ, UPANEMA E CAMPO GRANDE", "NUM_LICENS": "0002\/13", "DATA_VALID": "22\/03\/2017", "TIPO_OBRA": "Bueiros e Pontes", "FONTE": "Sem Informação" }, "geometry": { "type": "Point", "coordinates": [ -37.266109270409636, -5.684702815820805 ] } },
{ "type": "Feature", "properties": { "Nome_Reque": "DNIT - 146 pontos", "MUNICIPIO": "AREIA BRANCA, MOSSORÓ, UPANEMA E CAMPO GRANDE", "NUM_LICENS": "0002\/13", "DATA_VALID": "22\/03\/2017", "TIPO_OBRA": "Bueiros e Pontes", "FONTE": "Sem Informação" }, "geometry": { "type": "Point", "coordinates": [ -37.266661429364085, -5.68720920127206 ] } },
{ "type": "Feature", "properties": { "Nome_Reque": "DNIT - 146 pontos", "MUNICIPIO": "AREIA BRANCA, MOSSORÓ, UPANEMA E CAMPO GRANDE", "NUM_LICENS": "0002\/13", "DATA_VALID": "22\/03\/2017", "TIPO_OBRA": "Bueiros e Pontes", "FONTE": "Sem Informação" }, "geometry": { "type": "Point", "coordinates": [ -37.266946982901956, -5.688313224165642 ] } },
{ "type": "Feature", "properties": { "Nome_Reque": "DNIT - 146 pontos", "MUNICIPIO": "AREIA BRANCA, MOSSORÓ, UPANEMA E CAMPO GRANDE", "NUM_LICENS": "0002\/13", "DATA_VALID": "22\/03\/2017", "TIPO_OBRA": "Bueiros e Pontes", "FONTE": "Sem Informação" }, "geometry": { "type": "Point", "coordinates": [ -37.267499983710529, -5.690539300680881 ] } },
{ "type": "Feature", "properties": { "Nome_Reque": "DNIT - 146 pontos", "MUNICIPIO": "AREIA BRANCA, MOSSORÓ, UPANEMA E CAMPO GRANDE", "NUM_LICENS": "0002\/13", "DATA_VALID": "22\/03\/2017", "TIPO_OBRA": "Bueiros e Pontes", "FONTE": "Sem Informação" }, "geometry": { "type": "Point", "coordinates": [ -37.268054664904717, -5.692204757687129 ] } },
{ "type": "Feature", "properties": { "Nome_Reque": "DNIT - 146 pontos", "MUNICIPIO": "AREIA BRANCA, MOSSORÓ, UPANEMA E CAMPO GRANDE", "NUM_LICENS": "0002\/13", "DATA_VALID": "22\/03\/2017", "TIPO_OBRA": "Bueiros e Pontes", "FONTE": "Sem Informação" }, "geometry": { "type": "Point", "coordinates": [ -37.2694405370138, -5.696648711939632 ] } },
{ "type": "Feature", "properties": { "Nome_Reque": "DNIT - 146 pontos", "MUNICIPIO": "AREIA BRANCA, MOSSORÓ, UPANEMA E CAMPO GRANDE", "NUM_LICENS": "0002\/13", "DATA_VALID": "22\/03\/2017", "TIPO_OBRA": "Bueiros e Pontes", "FONTE": "Sem Informação" }, "geometry": { "type": "Point", "coordinates": [ -37.268607696554128, -5.694421793021141 ] } },
{ "type": "Feature", "properties": { "Nome_Reque": "DNIT - 146 pontos", "MUNICIPIO": "AREIA BRANCA, MOSSORÓ, UPANEMA E CAMPO GRANDE", "NUM_LICENS": "0002\/13", "DATA_VALID": "22\/03\/2017", "TIPO_OBRA": "Bueiros e Pontes", "FONTE": "Sem Informação" }, "geometry": { "type": "Point", "coordinates": [ -37.269441250834554, -5.699424714348291 ] } },
{ "type": "Feature", "properties": { "Nome_Reque": "DNIT - 146 pontos", "MUNICIPIO": "AREIA BRANCA, MOSSORÓ, UPANEMA E CAMPO GRANDE", "NUM_LICENS": "0002\/13", "DATA_VALID": "22\/03\/2017", "TIPO_OBRA": "Bueiros e Pontes", "FONTE": "Sem Informação" }, "geometry": { "type": "Point", "coordinates": [ -37.271943278044482, -5.701927919500244 ] } },
{ "type": "Feature", "properties": { "Nome_Reque": "DNIT - 146 pontos", "MUNICIPIO": "AREIA BRANCA, MOSSORÓ, UPANEMA E CAMPO GRANDE", "NUM_LICENS": "0002\/13", "DATA_VALID": "22\/03\/2017", "TIPO_OBRA": "Bueiros e Pontes", "FONTE": "Sem Informação" }, "geometry": { "type": "Point", "coordinates": [ -37.27194564750009, -5.704152346310972 ] } },
{ "type": "Feature", "properties": { "Nome_Reque": "DNIT - 146 pontos", "MUNICIPIO": "AREIA BRANCA, MOSSORÓ, UPANEMA E CAMPO GRANDE", "NUM_LICENS": "0002\/13", "DATA_VALID": "22\/03\/2017", "TIPO_OBRA": "Bueiros e Pontes", "FONTE": "Sem Informação" }, "geometry": { "type": "Point", "coordinates": [ -37.273333349968404, -5.704979367834952 ] } },
{ "type": "Feature", "properties": { "Nome_Reque": "DNIT - 146 pontos", "MUNICIPIO": "AREIA BRANCA, MOSSORÓ, UPANEMA E CAMPO GRANDE", "NUM_LICENS": "0002\/13", "DATA_VALID": "22\/03\/2017", "TIPO_OBRA": "Bueiros e Pontes", "FONTE": "Sem Informação" }, "geometry": { "type": "Point", "coordinates": [ -37.276939424167139, -5.700532287504355 ] } },
{ "type": "Feature", "properties": { "Nome_Reque": "DNIT - 146 pontos", "MUNICIPIO": "AREIA BRANCA, MOSSORÓ, UPANEMA E CAMPO GRANDE", "NUM_LICENS": "0002\/13", "DATA_VALID": "22\/03\/2017", "TIPO_OBRA": "Bueiros e Pontes", "FONTE": "Sem Informação" }, "geometry": { "type": "Point", "coordinates": [ -37.281387956150205, -5.707209834437589 ] } },
{ "type": "Feature", "properties": { "Nome_Reque": "DNIT - 146 pontos", "MUNICIPIO": "AREIA BRANCA, MOSSORÓ, UPANEMA E CAMPO GRANDE", "NUM_LICENS": "0002\/13", "DATA_VALID": "22\/03\/2017", "TIPO_OBRA": "Bueiros e Pontes", "FONTE": "Sem Informação" }, "geometry": { "type": "Point", "coordinates": [ -37.285552769575929, -5.709148302459214 ] } },
{ "type": "Feature", "properties": { "Nome_Reque": "DNIT - 146 pontos", "MUNICIPIO": "AREIA BRANCA, MOSSORÓ, UPANEMA E CAMPO GRANDE", "NUM_LICENS": "0002\/13", "DATA_VALID": "22\/03\/2017", "TIPO_OBRA": "Bueiros e Pontes", "FONTE": "Sem Informação" }, "geometry": { "type": "Point", "coordinates": [ -37.286391464449558, -5.709431118414127 ] } },
{ "type": "Feature", "properties": { "Nome_Reque": "DNIT - 146 pontos", "MUNICIPIO": "AREIA BRANCA, MOSSORÓ, UPANEMA E CAMPO GRANDE", "NUM_LICENS": "0002\/13", "DATA_VALID": "22\/03\/2017", "TIPO_OBRA": "Bueiros e Pontes", "FONTE": "Sem Informação" }, "geometry": { "type": "Point", "coordinates": [ -37.28721266204974, -5.751923897609625 ] } },
{ "type": "Feature", "properties": { "Nome_Reque": "DNIT - 146 pontos", "MUNICIPIO": "AREIA BRANCA, MOSSORÓ, UPANEMA E CAMPO GRANDE", "NUM_LICENS": "0002\/13", "DATA_VALID": "22\/03\/2017", "TIPO_OBRA": "Bueiros e Pontes", "FONTE": "Sem Informação" }, "geometry": { "type": "Point", "coordinates": [ -37.296101555952021, -5.713592392106301 ] } },
{ "type": "Feature", "properties": { "Nome_Reque": "DNIT - 146 pontos", "MUNICIPIO": "AREIA BRANCA, MOSSORÓ, UPANEMA E CAMPO GRANDE", "NUM_LICENS": "0002\/13", "DATA_VALID": "22\/03\/2017", "TIPO_OBRA": "Bueiros e Pontes", "FONTE": "Sem Informação" }, "geometry": { "type": "Point", "coordinates": [ -37.301945606016211, -5.721648474161837 ] } },
{ "type": "Feature", "properties": { "Nome_Reque": "DNIT - 146 pontos", "MUNICIPIO": "AREIA BRANCA, MOSSORÓ, UPANEMA E CAMPO GRANDE", "NUM_LICENS": "0002\/13", "DATA_VALID": "22\/03\/2017", "TIPO_OBRA": "Bueiros e Pontes", "FONTE": "Sem Informação" }, "geometry": { "type": "Point", "coordinates": [ -37.302502027082987, -5.7227623478125 ] } },
{ "type": "Feature", "properties": { "Nome_Reque": "DNIT - 146 pontos", "MUNICIPIO": "AREIA BRANCA, MOSSORÓ, UPANEMA E CAMPO GRANDE", "NUM_LICENS": "0002\/13", "DATA_VALID": "22\/03\/2017", "TIPO_OBRA": "Bueiros e Pontes", "FONTE": "Sem Informação" }, "geometry": { "type": "Point", "coordinates": [ -37.299996468035445, -5.727484143335659 ] } },
{ "type": "Feature", "properties": { "Nome_Reque": "DNIT - 146 pontos", "MUNICIPIO": "AREIA BRANCA, MOSSORÓ, UPANEMA E CAMPO GRANDE", "NUM_LICENS": "0002\/13", "DATA_VALID": "22\/03\/2017", "TIPO_OBRA": "Bueiros e Pontes", "FONTE": "Sem Informação" }, "geometry": { "type": "Point", "coordinates": [ -37.298882790362939, -5.728593062599382 ] } },
{ "type": "Feature", "properties": { "Nome_Reque": "DNIT - 146 pontos", "MUNICIPIO": "AREIA BRANCA, MOSSORÓ, UPANEMA E CAMPO GRANDE", "NUM_LICENS": "0002\/13", "DATA_VALID": "22\/03\/2017", "TIPO_OBRA": "Bueiros e Pontes", "FONTE": "Sem Informação" }, "geometry": { "type": "Point", "coordinates": [ -37.297220061737519, -5.729148755965668 ] } },
{ "type": "Feature", "properties": { "Nome_Reque": "DNIT - 146 pontos", "MUNICIPIO": "AREIA BRANCA, MOSSORÓ, UPANEMA E CAMPO GRANDE", "NUM_LICENS": "0002\/13", "DATA_VALID": "22\/03\/2017", "TIPO_OBRA": "Bueiros e Pontes", "FONTE": "Sem Informação" }, "geometry": { "type": "Point", "coordinates": [ -37.294995959879785, -5.730263405084865 ] } },
{ "type": "Feature", "properties": { "Nome_Reque": "DNIT - 146 pontos", "MUNICIPIO": "AREIA BRANCA, MOSSORÓ, UPANEMA E CAMPO GRANDE", "NUM_LICENS": "0002\/13", "DATA_VALID": "22\/03\/2017", "TIPO_OBRA": "Bueiros e Pontes", "FONTE": "Sem Informação" }, "geometry": { "type": "Point", "coordinates": [ -37.294715300664301, -5.73053384315159 ] } },
{ "type": "Feature", "properties": { "Nome_Reque": "DNIT - 146 pontos", "MUNICIPIO": "AREIA BRANCA, MOSSORÓ, UPANEMA E CAMPO GRANDE", "NUM_LICENS": "0002\/13", "DATA_VALID": "22\/03\/2017", "TIPO_OBRA": "Bueiros e Pontes", "FONTE": "Sem Informação" }, "geometry": { "type": "Point", "coordinates": [ -37.293049260680291, -5.732201732620978 ] } },
{ "type": "Feature", "properties": { "Nome_Reque": "DNIT - 146 pontos", "MUNICIPIO": "AREIA BRANCA, MOSSORÓ, UPANEMA E CAMPO GRANDE", "NUM_LICENS": "0002\/13", "DATA_VALID": "22\/03\/2017", "TIPO_OBRA": "Bueiros e Pontes", "FONTE": "Sem Informação" }, "geometry": { "type": "Point", "coordinates": [ -37.291384852112948, -5.7333180304122 ] } },
{ "type": "Feature", "properties": { "Nome_Reque": "DNIT - 146 pontos", "MUNICIPIO": "AREIA BRANCA, MOSSORÓ, UPANEMA E CAMPO GRANDE", "NUM_LICENS": "0002\/13", "DATA_VALID": "22\/03\/2017", "TIPO_OBRA": "Bueiros e Pontes", "FONTE": "Sem Informação" }, "geometry": { "type": "Point", "coordinates": [ -37.288605920108203, -5.735814480821473 ] } },
{ "type": "Feature", "properties": { "Nome_Reque": "DNIT - 146 pontos", "MUNICIPIO": "AREIA BRANCA, MOSSORÓ, UPANEMA E CAMPO GRANDE", "NUM_LICENS": "0002\/13", "DATA_VALID": "22\/03\/2017", "TIPO_OBRA": "Bueiros e Pontes", "FONTE": "Sem Informação" }, "geometry": { "type": "Point", "coordinates": [ -37.285827775075695, -5.738039640394463 ] } },
{ "type": "Feature", "properties": { "Nome_Reque": "DNIT - 146 pontos", "MUNICIPIO": "AREIA BRANCA, MOSSORÓ, UPANEMA E CAMPO GRANDE", "NUM_LICENS": "0002\/13", "DATA_VALID": "22\/03\/2017", "TIPO_OBRA": "Bueiros e Pontes", "FONTE": "Sem Informação" }, "geometry": { "type": "Point", "coordinates": [ -37.28499390868663, -5.739149356807525 ] } },
{ "type": "Feature", "properties": { "Nome_Reque": "DNIT - 146 pontos", "MUNICIPIO": "AREIA BRANCA, MOSSORÓ, UPANEMA E CAMPO GRANDE", "NUM_LICENS": "0002\/13", "DATA_VALID": "22\/03\/2017", "TIPO_OBRA": "Bueiros e Pontes", "FONTE": "Sem Informação" }, "geometry": { "type": "Point", "coordinates": [ -37.284160850229412, -5.739987801342111 ] } },
{ "type": "Feature", "properties": { "Nome_Reque": "DNIT - 146 pontos", "MUNICIPIO": "AREIA BRANCA, MOSSORÓ, UPANEMA E CAMPO GRANDE", "NUM_LICENS": "0002\/13", "DATA_VALID": "22\/03\/2017", "TIPO_OBRA": "Bueiros e Pontes", "FONTE": "Sem Informação" }, "geometry": { "type": "Point", "coordinates": [ -37.285280196083804, -5.743038450762288 ] } },
{ "type": "Feature", "properties": { "Nome_Reque": "DNIT - 146 pontos", "MUNICIPIO": "AREIA BRANCA, MOSSORÓ, UPANEMA E CAMPO GRANDE", "NUM_LICENS": "0002\/13", "DATA_VALID": "22\/03\/2017", "TIPO_OBRA": "Bueiros e Pontes", "FONTE": "Sem Informação" }, "geometry": { "type": "Point", "coordinates": [ -37.286946079768235, -5.747483272414351 ] } },
{ "type": "Feature", "properties": { "Nome_Reque": "DNIT - 146 pontos", "MUNICIPIO": "AREIA BRANCA, MOSSORÓ, UPANEMA E CAMPO GRANDE", "NUM_LICENS": "0002\/13", "DATA_VALID": "22\/03\/2017", "TIPO_OBRA": "Bueiros e Pontes", "FONTE": "Sem Informação" }, "geometry": { "type": "Point", "coordinates": [ -37.294995291261863, -5.712205612741115 ] } },
{ "type": "Feature", "properties": { "Nome_Reque": "DNIT - 146 pontos", "MUNICIPIO": "AREIA BRANCA, MOSSORÓ, UPANEMA E CAMPO GRANDE", "NUM_LICENS": "0002\/13", "DATA_VALID": "22\/03\/2017", "TIPO_OBRA": "Bueiros e Pontes", "FONTE": "Sem Informação" }, "geometry": { "type": "Point", "coordinates": [ -37.287222382656125, -5.754708990159777 ] } },
{ "type": "Feature", "properties": { "Nome_Reque": "DNIT - 146 pontos", "MUNICIPIO": "AREIA BRANCA, MOSSORÓ, UPANEMA E CAMPO GRANDE", "NUM_LICENS": "0002\/13", "DATA_VALID": "22\/03\/2017", "TIPO_OBRA": "Bueiros e Pontes", "FONTE": "Sem Informação" }, "geometry": { "type": "Point", "coordinates": [ -37.299163073673455, -5.758877132497404 ] } },
{ "type": "Feature", "properties": { "Nome_Reque": "DNIT - 146 pontos", "MUNICIPIO": "AREIA BRANCA, MOSSORÓ, UPANEMA E CAMPO GRANDE", "NUM_LICENS": "0002\/13", "DATA_VALID": "22\/03\/2017", "TIPO_OBRA": "Bueiros e Pontes", "FONTE": "Sem Informação" }, "geometry": { "type": "Point", "coordinates": [ -37.287772865386536, -5.760814273073839 ] } },
{ "type": "Feature", "properties": { "Nome_Reque": "DNIT - 146 pontos", "MUNICIPIO": "AREIA BRANCA, MOSSORÓ, UPANEMA E CAMPO GRANDE", "NUM_LICENS": "0002\/13", "DATA_VALID": "22\/03\/2017", "TIPO_OBRA": "Bueiros e Pontes", "FONTE": "Sem Informação" }, "geometry": { "type": "Point", "coordinates": [ -37.287777721205011, -5.762206819387536 ] } },
{ "type": "Feature", "properties": { "Nome_Reque": "DNIT - 146 pontos", "MUNICIPIO": "AREIA BRANCA, MOSSORÓ, UPANEMA E CAMPO GRANDE", "NUM_LICENS": "0002\/13", "DATA_VALID": "22\/03\/2017", "TIPO_OBRA": "Bueiros e Pontes", "FONTE": "Sem Informação" }, "geometry": { "type": "Point", "coordinates": [ -37.288333313943006, -5.76359197887745 ] } },
{ "type": "Feature", "properties": { "Nome_Reque": "DNIT - 146 pontos", "MUNICIPIO": "AREIA BRANCA, MOSSORÓ, UPANEMA E CAMPO GRANDE", "NUM_LICENS": "0002\/13", "DATA_VALID": "22\/03\/2017", "TIPO_OBRA": "Bueiros e Pontes", "FONTE": "Sem Informação" }, "geometry": { "type": "Point", "coordinates": [ -37.289999946713529, -5.770812839046855 ] } },
{ "type": "Feature", "properties": { "Nome_Reque": "DNIT - 146 pontos", "MUNICIPIO": "AREIA BRANCA, MOSSORÓ, UPANEMA E CAMPO GRANDE", "NUM_LICENS": "0002\/13", "DATA_VALID": "22\/03\/2017", "TIPO_OBRA": "Bueiros e Pontes", "FONTE": "Sem Informação" }, "geometry": { "type": "Point", "coordinates": [ -37.290275646604755, -5.772206200945925 ] } },
{ "type": "Feature", "properties": { "Nome_Reque": "DNIT - 146 pontos", "MUNICIPIO": "AREIA BRANCA, MOSSORÓ, UPANEMA E CAMPO GRANDE", "NUM_LICENS": "0002\/13", "DATA_VALID": "22\/03\/2017", "TIPO_OBRA": "Bueiros e Pontes", "FONTE": "Sem Informação" }, "geometry": { "type": "Point", "coordinates": [ -37.29055302732948, -5.773038937855659 ] } },
{ "type": "Feature", "properties": { "Nome_Reque": "DNIT - 146 pontos", "MUNICIPIO": "AREIA BRANCA, MOSSORÓ, UPANEMA E CAMPO GRANDE", "NUM_LICENS": "0002\/13", "DATA_VALID": "22\/03\/2017", "TIPO_OBRA": "Bueiros e Pontes", "FONTE": "Sem Informação" }, "geometry": { "type": "Point", "coordinates": [ -37.29111180394753, -5.776377272651617 ] } },
{ "type": "Feature", "properties": { "Nome_Reque": "DNIT - 146 pontos", "MUNICIPIO": "AREIA BRANCA, MOSSORÓ, UPANEMA E CAMPO GRANDE", "NUM_LICENS": "0002\/13", "DATA_VALID": "22\/03\/2017", "TIPO_OBRA": "Bueiros e Pontes", "FONTE": "Sem Informação" }, "geometry": { "type": "Point", "coordinates": [ -37.291667409389774, -5.777762434712694 ] } },
{ "type": "Feature", "properties": { "Nome_Reque": "DNIT - 146 pontos", "MUNICIPIO": "AREIA BRANCA, MOSSORÓ, UPANEMA E CAMPO GRANDE", "NUM_LICENS": "0002\/13", "DATA_VALID": "22\/03\/2017", "TIPO_OBRA": "Bueiros e Pontes", "FONTE": "Sem Informação" }, "geometry": { "type": "Point", "coordinates": [ -37.291943139060145, -5.779146755331261 ] } },
{ "type": "Feature", "properties": { "Nome_Reque": "DNIT - 146 pontos", "MUNICIPIO": "AREIA BRANCA, MOSSORÓ, UPANEMA E CAMPO GRANDE", "NUM_LICENS": "0002\/13", "DATA_VALID": "22\/03\/2017", "TIPO_OBRA": "Bueiros e Pontes", "FONTE": "Sem Informação" }, "geometry": { "type": "Point", "coordinates": [ -37.292218001523992, -5.780820431261976 ] } },
{ "type": "Feature", "properties": { "Nome_Reque": "DNIT - 146 pontos", "MUNICIPIO": "AREIA BRANCA, MOSSORÓ, UPANEMA E CAMPO GRANDE", "NUM_LICENS": "0002\/13", "DATA_VALID": "22\/03\/2017", "TIPO_OBRA": "Bueiros e Pontes", "FONTE": "Sem Informação" }, "geometry": { "type": "Point", "coordinates": [ -37.293055035807825, -5.784702151641303 ] } },
{ "type": "Feature", "properties": { "Nome_Reque": "DNIT - 146 pontos", "MUNICIPIO": "AREIA BRANCA, MOSSORÓ, UPANEMA E CAMPO GRANDE", "NUM_LICENS": "0002\/13", "DATA_VALID": "22\/03\/2017", "TIPO_OBRA": "Bueiros e Pontes", "FONTE": "Sem Informação" }, "geometry": { "type": "Point", "coordinates": [ -37.293331581037144, -5.785815202723402 ] } },
{ "type": "Feature", "properties": { "Nome_Reque": "DNIT - 146 pontos", "MUNICIPIO": "AREIA BRANCA, MOSSORÓ, UPANEMA E CAMPO GRANDE", "NUM_LICENS": "0002\/13", "DATA_VALID": "22\/03\/2017", "TIPO_OBRA": "Bueiros e Pontes", "FONTE": "Sem Informação" }, "geometry": { "type": "Point", "coordinates": [ -37.293887167862003, -5.787209408837802 ] } },
{ "type": "Feature", "properties": { "Nome_Reque": "DNIT - 146 pontos", "MUNICIPIO": "AREIA BRANCA, MOSSORÓ, UPANEMA E CAMPO GRANDE", "NUM_LICENS": "0002\/13", "DATA_VALID": "22\/03\/2017", "TIPO_OBRA": "Bueiros e Pontes", "FONTE": "Sem Informação" }, "geometry": { "type": "Point", "coordinates": [ -37.294162901070898, -5.788593730881174 ] } },
{ "type": "Feature", "properties": { "Nome_Reque": "DNIT - 146 pontos", "MUNICIPIO": "AREIA BRANCA, MOSSORÓ, UPANEMA E CAMPO GRANDE", "NUM_LICENS": "0002\/13", "DATA_VALID": "22\/03\/2017", "TIPO_OBRA": "Bueiros e Pontes", "FONTE": "Sem Informação" }, "geometry": { "type": "Point", "coordinates": [ -37.294438607551641, -5.789987095476261 ] } },
{ "type": "Feature", "properties": { "Nome_Reque": "DNIT - 146 pontos", "MUNICIPIO": "AREIA BRANCA, MOSSORÓ, UPANEMA E CAMPO GRANDE", "NUM_LICENS": "0002\/13", "DATA_VALID": "22\/03\/2017", "TIPO_OBRA": "Bueiros e Pontes", "FONTE": "Sem Informação" }, "geometry": { "type": "Point", "coordinates": [ -37.294724210855755, -5.791091132047993 ] } },
{ "type": "Feature", "properties": { "Nome_Reque": "DNIT - 146 pontos", "MUNICIPIO": "AREIA BRANCA, MOSSORÓ, UPANEMA E CAMPO GRANDE", "NUM_LICENS": "0002\/13", "DATA_VALID": "22\/03\/2017", "TIPO_OBRA": "Bueiros e Pontes", "FONTE": "Sem Informação" }, "geometry": { "type": "Point", "coordinates": [ -37.294998263570534, -5.793036080769872 ] } },
{ "type": "Feature", "properties": { "Nome_Reque": "DNIT - 146 pontos", "MUNICIPIO": "AREIA BRANCA, MOSSORÓ, UPANEMA E CAMPO GRANDE", "NUM_LICENS": "0002\/13", "DATA_VALID": "22\/03\/2017", "TIPO_OBRA": "Bueiros e Pontes", "FONTE": "Sem Informação" }, "geometry": { "type": "Point", "coordinates": [ -37.295836125474899, -5.796646535555655 ] } },
{ "type": "Feature", "properties": { "Nome_Reque": "DNIT - 146 pontos", "MUNICIPIO": "AREIA BRANCA, MOSSORÓ, UPANEMA E CAMPO GRANDE", "NUM_LICENS": "0002\/13", "DATA_VALID": "22\/03\/2017", "TIPO_OBRA": "Bueiros e Pontes", "FONTE": "Sem Informação" }, "geometry": { "type": "Point", "coordinates": [ -37.296942328493486, -5.801098746767372 ] } },
{ "type": "Feature", "properties": { "Nome_Reque": "DNIT - 146 pontos", "MUNICIPIO": "AREIA BRANCA, MOSSORÓ, UPANEMA E CAMPO GRANDE", "NUM_LICENS": "0002\/13", "DATA_VALID": "22\/03\/2017", "TIPO_OBRA": "Bueiros e Pontes", "FONTE": "Sem Informação" }, "geometry": { "type": "Point", "coordinates": [ -37.297497956310529, -5.802483913256332 ] } },
{ "type": "Feature", "properties": { "Nome_Reque": "DNIT - 146 pontos", "MUNICIPIO": "AREIA BRANCA, MOSSORÓ, UPANEMA E CAMPO GRANDE", "NUM_LICENS": "0002\/13", "DATA_VALID": "22\/03\/2017", "TIPO_OBRA": "Bueiros e Pontes", "FONTE": "Sem Informação" }, "geometry": { "type": "Point", "coordinates": [ -37.297772854194484, -5.804148550946144 ] } },
{ "type": "Feature", "properties": { "Nome_Reque": "DNIT - 146 pontos", "MUNICIPIO": "AREIA BRANCA, MOSSORÓ, UPANEMA E CAMPO GRANDE", "NUM_LICENS": "0002\/13", "DATA_VALID": "22\/03\/2017", "TIPO_OBRA": "Bueiros e Pontes", "FONTE": "Sem Informação" }, "geometry": { "type": "Point", "coordinates": [ -37.298335831570412, -5.80609437195194 ] } },
{ "type": "Feature", "properties": { "Nome_Reque": "DNIT - 146 pontos", "MUNICIPIO": "AREIA BRANCA, MOSSORÓ, UPANEMA E CAMPO GRANDE", "NUM_LICENS": "0002\/13", "DATA_VALID": "22\/03\/2017", "TIPO_OBRA": "Bueiros e Pontes", "FONTE": "Sem Informação" }, "geometry": { "type": "Point", "coordinates": [ -37.300001724751162, -5.813595580073147 ] } },
{ "type": "Feature", "properties": { "Nome_Reque": "DNIT - 146 pontos", "MUNICIPIO": "AREIA BRANCA, MOSSORÓ, UPANEMA E CAMPO GRANDE", "NUM_LICENS": "0002\/13", "DATA_VALID": "22\/03\/2017", "TIPO_OBRA": "Bueiros e Pontes", "FONTE": "Sem Informação" }, "geometry": { "type": "Point", "coordinates": [ -37.300555681430495, -5.815541376038152 ] } },
{ "type": "Feature", "properties": { "Nome_Reque": "DNIT - 146 pontos", "MUNICIPIO": "AREIA BRANCA, MOSSORÓ, UPANEMA E CAMPO GRANDE", "NUM_LICENS": "0002\/13", "DATA_VALID": "22\/03\/2017", "TIPO_OBRA": "Bueiros e Pontes", "FONTE": "Sem Informação" }, "geometry": { "type": "Point", "coordinates": [ -37.300773912326122, -5.818037751450324 ] } },
{ "type": "Feature", "properties": { "Nome_Reque": "DNIT - 146 pontos", "MUNICIPIO": "AREIA BRANCA, MOSSORÓ, UPANEMA E CAMPO GRANDE", "NUM_LICENS": "0002\/13", "DATA_VALID": "22\/03\/2017", "TIPO_OBRA": "Bueiros e Pontes", "FONTE": "Sem Informação" }, "geometry": { "type": "Point", "coordinates": [ -37.300828927817236, -5.81775760094169 ] } },
{ "type": "Feature", "properties": { "Nome_Reque": "DNIT - 146 pontos", "MUNICIPIO": "AREIA BRANCA, MOSSORÓ, UPANEMA E CAMPO GRANDE", "NUM_LICENS": "0002\/13", "DATA_VALID": "22\/03\/2017", "TIPO_OBRA": "Bueiros e Pontes", "FONTE": "Sem Informação" }, "geometry": { "type": "Point", "coordinates": [ -37.301385385127908, -5.818871499034515 ] } },
{ "type": "Feature", "properties": { "Nome_Reque": "DNIT - 146 pontos", "MUNICIPIO": "AREIA BRANCA, MOSSORÓ, UPANEMA E CAMPO GRANDE", "NUM_LICENS": "0002\/13", "DATA_VALID": "22\/03\/2017", "TIPO_OBRA": "Bueiros e Pontes", "FONTE": "Sem Informação" }, "geometry": { "type": "Point", "coordinates": [ -37.301944194812378, -5.822209849936939 ] } },
{ "type": "Feature", "properties": { "Nome_Reque": "DNIT - 146 pontos", "MUNICIPIO": "AREIA BRANCA, MOSSORÓ, UPANEMA E CAMPO GRANDE", "NUM_LICENS": "0002\/13", "DATA_VALID": "22\/03\/2017", "TIPO_OBRA": "Bueiros e Pontes", "FONTE": "Sem Informação" }, "geometry": { "type": "Point", "coordinates": [ -37.303051309691618, -5.826372717694347 ] } },
{ "type": "Feature", "properties": { "Nome_Reque": "DNIT - 146 pontos", "MUNICIPIO": "AREIA BRANCA, MOSSORÓ, UPANEMA E CAMPO GRANDE", "NUM_LICENS": "0002\/13", "DATA_VALID": "22\/03\/2017", "TIPO_OBRA": "Bueiros e Pontes", "FONTE": "Sem Informação" }, "geometry": { "type": "Point", "coordinates": [ -37.303886167660444, -5.824982691241951 ] } },
{ "type": "Feature", "properties": { "Nome_Reque": "DNIT - 146 pontos", "MUNICIPIO": "AREIA BRANCA, MOSSORÓ, UPANEMA E CAMPO GRANDE", "NUM_LICENS": "0002\/13", "DATA_VALID": "22\/03\/2017", "TIPO_OBRA": "Bueiros e Pontes", "FONTE": "Sem Informação" }, "geometry": { "type": "Point", "coordinates": [ -37.30471725103903, -5.83387394239691 ] } },
{ "type": "Feature", "properties": { "Nome_Reque": "DNIT - 146 pontos", "MUNICIPIO": "AREIA BRANCA, MOSSORÓ, UPANEMA E CAMPO GRANDE", "NUM_LICENS": "0002\/13", "DATA_VALID": "22\/03\/2017", "TIPO_OBRA": "Bueiros e Pontes", "FONTE": "Sem Informação" }, "geometry": { "type": "Point", "coordinates": [ -37.30499465875419, -5.834706685546413 ] } },
{ "type": "Feature", "properties": { "Nome_Reque": "DNIT - 146 pontos", "MUNICIPIO": "AREIA BRANCA, MOSSORÓ, UPANEMA E CAMPO GRANDE", "NUM_LICENS": "0002\/13", "DATA_VALID": "22\/03\/2017", "TIPO_OBRA": "Bueiros e Pontes", "FONTE": "Sem Informação" }, "geometry": { "type": "Point", "coordinates": [ -37.305833415219951, -5.83803684285205 ] } },
{ "type": "Feature", "properties": { "Nome_Reque": "DNIT - 146 pontos", "MUNICIPIO": "AREIA BRANCA, MOSSORÓ, UPANEMA E CAMPO GRANDE", "NUM_LICENS": "0002\/13", "DATA_VALID": "22\/03\/2017", "TIPO_OBRA": "Bueiros e Pontes", "FONTE": "Sem Informação" }, "geometry": { "type": "Point", "coordinates": [ -37.306384893825907, -5.840814544638777 ] } },
{ "type": "Feature", "properties": { "Nome_Reque": "DNIT - 146 pontos", "MUNICIPIO": "AREIA BRANCA, MOSSORÓ, UPANEMA E CAMPO GRANDE", "NUM_LICENS": "0002\/13", "DATA_VALID": "22\/03\/2017", "TIPO_OBRA": "Bueiros e Pontes", "FONTE": "Sem Informação" }, "geometry": { "type": "Point", "coordinates": [ -37.307221973067293, -5.844705332853644 ] } },
{ "type": "Feature", "properties": { "Nome_Reque": "DNIT - 146 pontos", "MUNICIPIO": "AREIA BRANCA, MOSSORÓ, UPANEMA E CAMPO GRANDE", "NUM_LICENS": "0002\/13", "DATA_VALID": "22\/03\/2017", "TIPO_OBRA": "Bueiros e Pontes", "FONTE": "Sem Informação" }, "geometry": { "type": "Point", "coordinates": [ -37.307775113738323, -5.846931450155427 ] } },
{ "type": "Feature", "properties": { "Nome_Reque": "DNIT - 146 pontos", "MUNICIPIO": "AREIA BRANCA, MOSSORÓ, UPANEMA E CAMPO GRANDE", "NUM_LICENS": "0002\/13", "DATA_VALID": "22\/03\/2017", "TIPO_OBRA": "Bueiros e Pontes", "FONTE": "Sem Informação" }, "geometry": { "type": "Point", "coordinates": [ -37.30832912604783, -5.848868211162212 ] } },
{ "type": "Feature", "properties": { "Nome_Reque": "DNIT - 146 pontos", "MUNICIPIO": "AREIA BRANCA, MOSSORÓ, UPANEMA E CAMPO GRANDE", "NUM_LICENS": "0002\/13", "DATA_VALID": "22\/03\/2017", "TIPO_OBRA": "Bueiros e Pontes", "FONTE": "Sem Informação" }, "geometry": { "type": "Point", "coordinates": [ -37.308889642417803, -5.851645943325197 ] } },
{ "type": "Feature", "properties": { "Nome_Reque": "DNIT - 146 pontos", "MUNICIPIO": "AREIA BRANCA, MOSSORÓ, UPANEMA E CAMPO GRANDE", "NUM_LICENS": "0002\/13", "DATA_VALID": "22\/03\/2017", "TIPO_OBRA": "Bueiros e Pontes", "FONTE": "Sem Informação" }, "geometry": { "type": "Point", "coordinates": [ -37.310553428273558, -5.853875409269069 ] } },
{ "type": "Feature", "properties": { "Nome_Reque": "DNIT - 146 pontos", "MUNICIPIO": "AREIA BRANCA, MOSSORÓ, UPANEMA E CAMPO GRANDE", "NUM_LICENS": "0002\/13", "DATA_VALID": "22\/03\/2017", "TIPO_OBRA": "Bueiros e Pontes", "FONTE": "Sem Informação" }, "geometry": { "type": "Point", "coordinates": [ -37.311668943972101, -5.855262270735834 ] } },
{ "type": "Feature", "properties": { "Nome_Reque": "DNIT - 146 pontos", "MUNICIPIO": "AREIA BRANCA, MOSSORÓ, UPANEMA E CAMPO GRANDE", "NUM_LICENS": "0002\/13", "DATA_VALID": "22\/03\/2017", "TIPO_OBRA": "Bueiros e Pontes", "FONTE": "Sem Informação" }, "geometry": { "type": "Point", "coordinates": [ -37.316668082407425, -5.856371446946816 ] } },
{ "type": "Feature", "properties": { "Nome_Reque": "DNIT - 146 pontos", "MUNICIPIO": "AREIA BRANCA, MOSSORÓ, UPANEMA E CAMPO GRANDE", "NUM_LICENS": "0002\/13", "DATA_VALID": "22\/03\/2017", "TIPO_OBRA": "Bueiros e Pontes", "FONTE": "Sem Informação" }, "geometry": { "type": "Point", "coordinates": [ -37.292073749631662, -5.858512443114559 ] } },
{ "type": "Feature", "properties": { "Nome_Reque": "DNIT - 146 pontos", "MUNICIPIO": "AREIA BRANCA, MOSSORÓ, UPANEMA E CAMPO GRANDE", "NUM_LICENS": "0002\/13", "DATA_VALID": "22\/03\/2017", "TIPO_OBRA": "Bueiros e Pontes", "FONTE": "Sem Informação" }, "geometry": { "type": "Point", "coordinates": [ -37.319439268508887, -5.859707413271907 ] } },
{ "type": "Feature", "properties": { "Nome_Reque": "DNIT - 146 pontos", "MUNICIPIO": "AREIA BRANCA, MOSSORÓ, UPANEMA E CAMPO GRANDE", "NUM_LICENS": "0002\/13", "DATA_VALID": "22\/03\/2017", "TIPO_OBRA": "Bueiros e Pontes", "FONTE": "Sem Informação" }, "geometry": { "type": "Point", "coordinates": [ -37.319716701848776, -5.860540158364648 ] } },
{ "type": "Feature", "properties": { "Nome_Reque": "DNIT - 146 pontos", "MUNICIPIO": "AREIA BRANCA, MOSSORÓ, UPANEMA E CAMPO GRANDE", "NUM_LICENS": "0002\/13", "DATA_VALID": "22\/03\/2017", "TIPO_OBRA": "Bueiros e Pontes", "FONTE": "Sem Informação" }, "geometry": { "type": "Point", "coordinates": [ -37.319994135698224, -5.861372903531954 ] } },
{ "type": "Feature", "properties": { "Nome_Reque": "DNIT - 146 pontos", "MUNICIPIO": "AREIA BRANCA, MOSSORÓ, UPANEMA E CAMPO GRANDE", "NUM_LICENS": "0002\/13", "DATA_VALID": "22\/03\/2017", "TIPO_OBRA": "Bueiros e Pontes", "FONTE": "Sem Informação" }, "geometry": { "type": "Point", "coordinates": [ -37.319717307349954, -5.866372592850849 ] } },
{ "type": "Feature", "properties": { "Nome_Reque": "Francisco Samuel de Mesquita", "MUNICIPIO": "BARAÚNA", "NUM_LICENS": "0019\/13", "DATA_VALID": "24\/07\/2017", "TIPO_OBRA": "Poço tubular", "FONTE": "Sem Informação" }, "geometry": { "type": "Point", "coordinates": [ -37.671316689567057, -5.077299193121872 ] } },
{ "type": "Feature", "properties": { "Nome_Reque": "Maria Rita Miranda", "MUNICIPIO": "BARAÚNA", "NUM_LICENS": "0020\/13", "DATA_VALID": "24\/07\/2017", "TIPO_OBRA": "Poço tubular", "FONTE": "Sem Informação" }, "geometry": { "type": "Point", "coordinates": [ -37.569944403808634, -5.009136370382125 ] } },
{ "type": "Feature", "properties": { "Nome_Reque": "Raimundo Augusto dos Santos", "MUNICIPIO": "BARAÚNA", "NUM_LICENS": "0021\/13", "DATA_VALID": "24\/07\/2017", "TIPO_OBRA": "Poço tubular", "FONTE": "Sem Informação" }, "geometry": { "type": "Point", "coordinates": [ -37.553238797756755, -5.006847742523305 ] } },
{ "type": "Feature", "properties": { "Nome_Reque": "Jacinto Jardim de Oliveira", "MUNICIPIO": "BARAÚNA", "NUM_LICENS": "0022\/13", "DATA_VALID": "24\/07\/2017", "TIPO_OBRA": "Poço tubular", "FONTE": "Sem Informação" }, "geometry": { "type": "Point", "coordinates": [ -37.603898342669282, -5.172136242725404 ] } },
{ "type": "Feature", "properties": { "Nome_Reque": "Francisco Rodrigues Neto Júnior", "MUNICIPIO": "AÇU", "NUM_LICENS": "0023\/13", "DATA_VALID": "25\/07\/2017", "TIPO_OBRA": "Poço tubular", "FONTE": "Sem Informação" }, "geometry": { "type": "Point", "coordinates": [ -36.922130961095263, -5.537010457852061 ] } },
{ "type": "Feature", "properties": { "Nome_Reque": "FRANCISCO TAVARES DA SILVA", "MUNICIPIO": "MOSSORÓ", "NUM_LICENS": "0008\/15", "DATA_VALID": "02\/03\/2016", "TIPO_OBRA": "POÇO TUBULAR", "FONTE": "AQUÍFERO JANDAÍRA" }, "geometry": { "type": "Point", "coordinates": [ -37.163071041157693, -5.064777673584565 ] } },
{ "type": "Feature", "properties": { "Nome_Reque": "MRS CONSTRUÇÃO & INCORPORAÇÃO - ME", "MUNICIPIO": "CEARÁ-MIRIM", "NUM_LICENS": "0010\/15", "DATA_VALID": "10\/03\/2016", "TIPO_OBRA": "POÇO TUBULAR", "FONTE": "AQUÍFERO BARREIRAS" }, "geometry": { "type": "Point", "coordinates": [ -36.534055850279458, -6.342894438994486 ] } },
{ "type": "Feature", "properties": { "Nome_Reque": "JOSÉ SIMPLICIO DE HOLANDA", "MUNICIPIO": "UPANEMA", "NUM_LICENS": "0012\/15", "DATA_VALID": "10\/03\/2016", "TIPO_OBRA": "POÇO TUBULAR", "FONTE": "AQUÍFERO AÇU" }, "geometry": { "type": "Point", "coordinates": [ -37.354801254158296, -5.493328050001915 ] } },
{ "type": "Feature", "properties": { "Nome_Reque": "CTM AGRÍCOLA LTDA-ME", "MUNICIPIO": "AÇU", "NUM_LICENS": "0021\/15", "DATA_VALID": "22\/05\/2016", "TIPO_OBRA": "POÇO TUBULAR", "FONTE": "AQUÍFERO AÇU" }, "geometry": { "type": "Point", "coordinates": [ -37.375890728421524, -6.268496448944822 ] } },
{ "type": "Feature", "properties": { "Nome_Reque": "CTM AGRÍCOLA LTDA-ME", "MUNICIPIO": "AÇU", "NUM_LICENS": "0021\/15", "DATA_VALID": "22\/05\/2016", "TIPO_OBRA": "POÇO TUBULAR", "FONTE": "AQUÍFERO AÇU" }, "geometry": { "type": "Point", "coordinates": [ -37.073783920030614, -5.472261995438221 ] } },
{ "type": "Feature", "properties": { "Nome_Reque": "CTM AGRÍCOLA LTDA-ME", "MUNICIPIO": "AÇU", "NUM_LICENS": "0021\/15", "DATA_VALID": "22\/05\/2016", "TIPO_OBRA": "POÇO TUBULAR", "FONTE": "AQUÍFERO AÇU" }, "geometry": { "type": "Point", "coordinates": [ -37.068761919200419, -5.462707146612628 ] } },
{ "type": "Feature", "properties": { "Nome_Reque": "CTM AGRÍCOLA LTDA-ME", "MUNICIPIO": "AÇU", "NUM_LICENS": "0021\/15", "DATA_VALID": "22\/05\/2016", "TIPO_OBRA": "POÇO TUBULAR", "FONTE": "AQUÍFERO AÇU" }, "geometry": { "type": "Point", "coordinates": [ -37.09363083305162, -5.470318232446878 ] } },
{ "type": "Feature", "properties": { "Nome_Reque": "CTM AGRÍCOLA LTDA-ME", "MUNICIPIO": "AÇU", "NUM_LICENS": "0021\/15", "DATA_VALID": "22\/05\/2016", "TIPO_OBRA": "POÇO TUBULAR", "FONTE": "AQUÍFERO AÇU" }, "geometry": { "type": "Point", "coordinates": [ -37.096969301235191, -5.461721275810027 ] } },
{ "type": "Feature", "properties": { "Nome_Reque": "AILSON DANTAS FELÍCIO", "MUNICIPIO": "AÇU", "NUM_LICENS": "0022\/15", "DATA_VALID": "22\/05\/2016", "TIPO_OBRA": "POÇO TUBULAR", "FONTE": "AQUÍFERO AÇU" }, "geometry": { "type": "Point", "coordinates": [ -36.954334338514627, -5.406673000054517 ] } },
{ "type": "Feature", "properties": { "Nome_Reque": "FRANCISCA MARIA DO NASCIMENTO MACEDO", "MUNICIPIO": "MOSSORÓ", "NUM_LICENS": "0023\/15", "DATA_VALID": "01\/06\/2016", "TIPO_OBRA": "POÇO TUBULAR", "FONTE": "AQUÍFERO JANDAÍRA" }, "geometry": { "type": "Point", "coordinates": [ -37.438802288887295, -4.949449209557602 ] } },
{ "type": "Feature", "properties": { "Nome_Reque": "HAMILTON LOPES DE MENDONÇA", "MUNICIPIO": "MOSSORÓ", "NUM_LICENS": "0024\/15", "DATA_VALID": "01\/06\/2016", "TIPO_OBRA": "POÇO TUBULAR", "FONTE": "AQUÍFERO JANDAÍRA" }, "geometry": { "type": "Point", "coordinates": [ -37.427903955138241, -4.944359191412656 ] } },
{ "type": "Feature", "properties": { "Nome_Reque": "EXPEDITO CASSIANO DA SILVA", "MUNICIPIO": "MOSSORÓ", "NUM_LICENS": "0025\/15", "DATA_VALID": "01\/06\/2016", "TIPO_OBRA": "POÇO TUBULAR", "FONTE": "AQUÍFERO JANDAÍRA" }, "geometry": { "type": "Point", "coordinates": [ -37.505086427176174, -4.953310083446729 ] } },
{ "type": "Feature", "properties": { "Nome_Reque": "IVANILDO NUNES", "MUNICIPIO": "MOSSORÓ", "NUM_LICENS": "0026\/15", "DATA_VALID": "01\/06\/2016", "TIPO_OBRA": "POÇO TUBULAR", "FONTE": "AQUÍFERO JANDAÍRA" }, "geometry": { "type": "Point", "coordinates": [ -37.513617892632276, -4.960835510785046 ] } },
{ "type": "Feature", "properties": { "Nome_Reque": "JOSÉ MARCOS FERREIRA", "MUNICIPIO": "MOSSORÓ", "NUM_LICENS": "0027\/15", "DATA_VALID": "01\/06\/2016", "TIPO_OBRA": "POÇO TUBULAR", "FONTE": "AQUÍFERO JANDAÍRA" }, "geometry": { "type": "Point", "coordinates": [ -37.511132566752124, -4.971356668386972 ] } },
{ "type": "Feature", "properties": { "Nome_Reque": "PEDRO FRANCISCO SANTOS", "MUNICIPIO": "MOSSORÓ", "NUM_LICENS": "0028\/15", "DATA_VALID": "01\/06\/2016", "TIPO_OBRA": "POÇO TUBULAR", "FONTE": "AQUÍFERO JANDAÍRA" }, "geometry": { "type": "Point", "coordinates": [ -37.500819138114885, -4.958274386476697 ] } },
{ "type": "Feature", "properties": { "Nome_Reque": "EDUARDO FEIJÃO RODRIGUES", "MUNICIPIO": "MOSSORÓ", "NUM_LICENS": "0029\/15", "DATA_VALID": "01\/06\/2016", "TIPO_OBRA": "POÇO TUBULAR", "FONTE": "AQUÍFERO JANDAÍRA" }, "geometry": { "type": "Point", "coordinates": [ -37.50182671120686, -4.951313123325881 ] } },
{ "type": "Feature", "properties": { "Nome_Reque": "MANOEL SOMBRA DO ROSÁRIO FILHO", "MUNICIPIO": "MOSSORÓ", "NUM_LICENS": "0030\/15", "DATA_VALID": "01\/06\/2016", "TIPO_OBRA": "POÇO TUBULAR", "FONTE": "AQUÍFERO JANDAÍRA" }, "geometry": { "type": "Point", "coordinates": [ -37.529379114750867, -4.969462286321194 ] } },
{ "type": "Feature", "properties": { "Nome_Reque": "JOSÉ IVANILDO DE OLIVEIRA", "MUNICIPIO": "MOSSORÓ", "NUM_LICENS": "0031\/15", "DATA_VALID": "01\/06\/2016", "TIPO_OBRA": "POÇO TUBULAR", "FONTE": "AQUÍFERO JANDAÍRA" }, "geometry": { "type": "Point", "coordinates": [ -37.507226414226338, -4.956027993578313 ] } },
{ "type": "Feature", "properties": { "Nome_Reque": "GERALDO MARCOS FERREIRA", "MUNICIPIO": "MOSSORÓ", "NUM_LICENS": "0032\/15", "DATA_VALID": "01\/06\/2016", "TIPO_OBRA": "POÇO TUBULAR", "FONTE": "AQUÍFERO JANDAÍRA" }, "geometry": { "type": "Point", "coordinates": [ -37.483589514733659, -4.953351587505375 ] } },
{ "type": "Feature", "properties": { "Nome_Reque": "FRANCISCA MILENA LEITE SILVA", "MUNICIPIO": "MOSSORÓ", "NUM_LICENS": "0033\/15", "DATA_VALID": "01\/06\/2016", "TIPO_OBRA": "POÇO TUBULAR", "FONTE": "AQUÍFERO JANDAÍRA" }, "geometry": { "type": "Point", "coordinates": [ -37.523251795049816, -4.967413769799165 ] } },
{ "type": "Feature", "properties": { "Nome_Reque": "JOSÉ MARTINS DA SILVA FILHO", "MUNICIPIO": "MOSSORÓ", "NUM_LICENS": "0034\/15", "DATA_VALID": "01\/06\/2016", "TIPO_OBRA": "POÇO TUBULAR", "FONTE": "AQUÍFERO JANDAÍRA" }, "geometry": { "type": "Point", "coordinates": [ -37.49878167140232, -5.001814455188832 ] } },
{ "type": "Feature", "properties": { "Nome_Reque": "ANTÔNIO MONTEIRO DE SOUSA", "MUNICIPIO": "MOSSORÓ", "NUM_LICENS": "0035\/15", "DATA_VALID": "01\/06\/2016", "TIPO_OBRA": "POÇO TUBULAR", "FONTE": "AQUÍFERO JANDAÍRA" }, "geometry": { "type": "Point", "coordinates": [ -37.438802288887295, -4.949449209557602 ] } },
{ "type": "Feature", "properties": { "Nome_Reque": "JOÃO MIRANDA DE FREITAS", "MUNICIPIO": "MOSSORÓ", "NUM_LICENS": "0036\/15", "DATA_VALID": "01\/06\/2016", "TIPO_OBRA": "POÇO TUBULAR", "FONTE": "AQUÍFERO JANDAÍRA" }, "geometry": { "type": "Point", "coordinates": [ -37.497256475126235, -5.002335483696114 ] } },
{ "type": "Feature", "properties": { "Nome_Reque": "MARIA VALNICE GARCIA DE OLIVEIRA", "MUNICIPIO": "MOSSORÓ", "NUM_LICENS": "0037\/15", "DATA_VALID": "01\/06\/2016", "TIPO_OBRA": "POÇO TUBULAR", "FONTE": "AQUÍFERO JANDAÍRA" }, "geometry": { "type": "Point", "coordinates": [ -37.4823417607519, -4.990282316504082 ] } },
{ "type": "Feature", "properties": { "Nome_Reque": "MARIA DE FÁTIMA ARAÚJO DA SILVA", "MUNICIPIO": "MOSSORÓ", "NUM_LICENS": "0038\/15", "DATA_VALID": "01\/06\/2016", "TIPO_OBRA": "POÇO TUBULAR", "FONTE": "AQUÍFERO JANDAÍRA" }, "geometry": { "type": "Point", "coordinates": [ -37.41303225179869, -4.968360553340163 ] } },
{ "type": "Feature", "properties": { "Nome_Reque": "JUCÉLIA OLIVEIRA DE LIMA", "MUNICIPIO": "MOSSORÓ", "NUM_LICENS": "0039\/15", "DATA_VALID": "01\/06\/2016", "TIPO_OBRA": "POÇO TUBULAR", "FONTE": "AQUÍFERO JANDAÍRA" }, "geometry": { "type": "Point", "coordinates": [ -37.46140585452639, -4.946309810011052 ] } },
{ "type": "Feature", "properties": { "Nome_Reque": "DIVANILDO BELARMINO DE ARAÚJO", "MUNICIPIO": "MOSSORÓ", "NUM_LICENS": "0040\/15", "DATA_VALID": "01\/06\/2016", "TIPO_OBRA": "POÇO TUBULAR", "FONTE": "AQUÍFERO JANDAÍRA" }, "geometry": { "type": "Point", "coordinates": [ -37.421835141765939, -4.956010537737255 ] } },
{ "type": "Feature", "properties": { "Nome_Reque": "FRANCISCO NAZARENO DA SILVA", "MUNICIPIO": "MOSSORÓ", "NUM_LICENS": "0041\/15", "DATA_VALID": "01\/06\/2016", "TIPO_OBRA": "POÇO TUBULAR", "FONTE": "AQUÍFERO JANDAÍRA" }, "geometry": { "type": "Point", "coordinates": [ -37.445357830324909, -4.929976245487721 ] } },
{ "type": "Feature", "properties": { "Nome_Reque": "EVA MARIA DA SILVA ALVES", "MUNICIPIO": "MOSSORÓ", "NUM_LICENS": "0042\/15", "DATA_VALID": "01\/06\/2016", "TIPO_OBRA": "POÇO TUBULAR", "FONTE": "AQUÍFERO JANDAÍRA" }, "geometry": { "type": "Point", "coordinates": [ -37.466479843676552, -4.951322589759784 ] } },
{ "type": "Feature", "properties": { "Nome_Reque": "ANTÔNIA DANTAS PEREIRA", "MUNICIPIO": "MOSSORÓ", "NUM_LICENS": "0043\/15", "DATA_VALID": "01\/06\/2016", "TIPO_OBRA": "POÇO TUBULAR", "FONTE": "AQUÍFERO JANDAÍRA" }, "geometry": { "type": "Point", "coordinates": [ -37.461256300070488, -4.948597443476917 ] } },
{ "type": "Feature", "properties": { "Nome_Reque": "JEOVÁ PEDRO DA SILVA", "MUNICIPIO": "MOSSORÓ", "NUM_LICENS": "0044\/15", "DATA_VALID": "01\/06\/2016", "TIPO_OBRA": "POÇO TUBULAR", "FONTE": "AQUÍFERO JANDAÍRA" }, "geometry": { "type": "Point", "coordinates": [ -37.450538236038057, -4.943417733639909 ] } },
{ "type": "Feature", "properties": { "Nome_Reque": "MARIA APARECIDA CARVALHO", "MUNICIPIO": "MOSSORÓ", "NUM_LICENS": "0045\/15", "DATA_VALID": "01\/06\/2016", "TIPO_OBRA": "POÇO TUBULAR", "FONTE": "AQUÍFERO JANDAÍRA" }, "geometry": { "type": "Point", "coordinates": [ -37.486491149050927, -4.954172148611515 ] } },
{ "type": "Feature", "properties": { "Nome_Reque": "ANTÔNIA ANTONIETA DA COSTA CARVALHO", "MUNICIPIO": "MOSSORÓ", "NUM_LICENS": "0046\/15", "DATA_VALID": "01\/06\/2016", "TIPO_OBRA": "POÇO TUBULAR", "FONTE": "AQUÍFERO JANDAÍRA" }, "geometry": { "type": "Point", "coordinates": [ -37.396513975366226, -4.941860420081556 ] } },
{ "type": "Feature", "properties": { "Nome_Reque": "FRANCISCO DAS CHAGAS PEREIRA", "MUNICIPIO": "MOSSORÓ", "NUM_LICENS": "0047\/15", "DATA_VALID": "01\/06\/2016", "TIPO_OBRA": "POÇO TUBULAR", "FONTE": "AQUÍFERO JANDAÍRA" }, "geometry": { "type": "Point", "coordinates": [ -37.395724274418257, -4.944046945233477 ] } },
{ "type": "Feature", "properties": { "Nome_Reque": "JOSÉ TEODORO BENTO", "MUNICIPIO": "MOSSORÓ", "NUM_LICENS": "0048\/15", "DATA_VALID": "02\/06\/2016", "TIPO_OBRA": "POÇO TUBULAR", "FONTE": "AQUÍFERO JANDAÍRA" }, "geometry": { "type": "Point", "coordinates": [ -37.391625525691154, -4.934993904884372 ] } },
{ "type": "Feature", "properties": { "Nome_Reque": "MARIA DAS GRAÇAS ELIZIÁRIO DA SILVA", "MUNICIPIO": "MOSSORÓ", "NUM_LICENS": "0049\/15", "DATA_VALID": "02\/06\/2016", "TIPO_OBRA": "POÇO TUBULAR", "FONTE": "AQUÍFERO JANDAÍRA" }, "geometry": { "type": "Point", "coordinates": [ -37.471779501441809, -4.95626352758862 ] } },
{ "type": "Feature", "properties": { "Nome_Reque": "JOSÉ HÉLIO DE PAULA BEZERRA", "MUNICIPIO": "UPANEMA", "NUM_LICENS": "0050\/15", "DATA_VALID": "02\/06\/2016", "TIPO_OBRA": "POÇO TUBULAR", "FONTE": "AQUÍFERO JANDAÍRA" }, "geometry": { "type": "Point", "coordinates": [ -37.400054633604292, -5.628363187227181 ] } },
{ "type": "Feature", "properties": { "Nome_Reque": "ANTÔNIO PINHEIRO DA COSTA", "MUNICIPIO": "AREIA BRANCA", "NUM_LICENS": "0051\/15", "DATA_VALID": "02\/06\/2016", "TIPO_OBRA": "POÇO TUBULAR", "FONTE": "AQUÍFERO JANDAÍRA" }, "geometry": { "type": "Point", "coordinates": [ -37.163397651471577, -5.067265150697342 ] } },
{ "type": "Feature", "properties": { "Nome_Reque": "MARIA ITANEIDE DE OLIVEIRA FERREIRA", "MUNICIPIO": "MOSSORÓ", "NUM_LICENS": "0052\/15", "DATA_VALID": "02\/06\/2016", "TIPO_OBRA": "POÇO TUBULAR", "FONTE": "AQUÍFERO JANDAÍRA" }, "geometry": { "type": "Point", "coordinates": [ -37.45573522420203, -4.941991965327657 ] } },
{ "type": "Feature", "properties": { "Nome_Reque": "SEVERINA MARTINS DA SILVA PAIVA", "MUNICIPIO": "MOSSORÓ", "NUM_LICENS": "0053\/15", "DATA_VALID": "02\/06\/2016", "TIPO_OBRA": "POÇO TUBULAR", "FONTE": "AQUÍFERO JANDAÍRA" }, "geometry": { "type": "Point", "coordinates": [ -37.408771237539185, -4.974201218312509 ] } },
{ "type": "Feature", "properties": { "Nome_Reque": "AUCIENE GERUZA DOS SANTOS", "MUNICIPIO": "MOSSORÓ", "NUM_LICENS": "0055\/15", "DATA_VALID": "03\/06\/2016", "TIPO_OBRA": "POÇO TUBULAR", "FONTE": "AQUÍFERO JANDAÍRA" }, "geometry": { "type": "Point", "coordinates": [ -37.45239711349376, -4.923345798008819 ] } },
{ "type": "Feature", "properties": { "Nome_Reque": "JOÃO DA SILVA", "MUNICIPIO": "BARAÚNA", "NUM_LICENS": "0056\/15", "DATA_VALID": "03\/06\/2016", "TIPO_OBRA": "POÇO TUBULAR", "FONTE": "AQUÍFERO JANDAÍRA" }, "geometry": { "type": "Point", "coordinates": [ -37.733555433535216, -5.239409331923871 ] } },
{ "type": "Feature", "properties": { "Nome_Reque": "FRANCISCO ROSÁRIO DE BRITO", "MUNICIPIO": "BARAÚNA", "NUM_LICENS": "0057\/15", "DATA_VALID": "08\/06\/2016", "TIPO_OBRA": "POÇO TUBULAR", "FONTE": "AQUÍFERO JANDAÍRA" }, "geometry": { "type": "Point", "coordinates": [ -37.604096212038868, -5.030490563712519 ] } },
{ "type": "Feature", "properties": { "Nome_Reque": "ANTÔNIO VICTOR MAIA FILHO", "MUNICIPIO": "BARAÚNA", "NUM_LICENS": "0058\/15", "DATA_VALID": "03\/06\/2016", "TIPO_OBRA": "POÇO TUBULAR", "FONTE": "AQUÍFERO JANDAÍRA" }, "geometry": { "type": "Point", "coordinates": [ -37.595981839247813, -5.029387855457301 ] } },
{ "type": "Feature", "properties": { "Nome_Reque": "ANTÔNIA MAGARETE SOUZA DA SILVA", "MUNICIPIO": "MOSSORÓ", "NUM_LICENS": "0060\/15", "DATA_VALID": "03\/06\/2016", "TIPO_OBRA": "POÇO TUBULAR", "FONTE": "AQUÍFERO JANDAÍRA" }, "geometry": { "type": "Point", "coordinates": [ -37.399141678246131, -4.906309135923978 ] } },
{ "type": "Feature", "properties": { "Nome_Reque": "VERLANDI OLIMPIO DE OLIVEIRA", "MUNICIPIO": "MOSSORÓ", "NUM_LICENS": "0066\/15", "DATA_VALID": "26\/06\/2016", "TIPO_OBRA": "POÇO TUBULAR", "FONTE": "AQUÍFERO JANDAÍRA" }, "geometry": { "type": "Point", "coordinates": [ -37.426687753855269, -4.93243729104647 ] } },
{ "type": "Feature", "properties": { "Nome_Reque": "RAIMUNDO MARTINS DA SILVA", "MUNICIPIO": "MOSSORÓ", "NUM_LICENS": "0067\/15", "DATA_VALID": "26\/06\/2016", "TIPO_OBRA": "POÇO TUBULAR", "FONTE": "AQUÍFERO JANDAÍRA" }, "geometry": { "type": "Point", "coordinates": [ -37.530685548109695, -4.949569092082158 ] } },
{ "type": "Feature", "properties": { "Nome_Reque": "PATRÍCIO GOMES PEREIRA DE SOUZA", "MUNICIPIO": "MOSSORÓ", "NUM_LICENS": "0068\/15", "DATA_VALID": "26\/06\/2016", "TIPO_OBRA": "POÇO TUBULAR", "FONTE": "AQUÍFERO JANDAÍRA" }, "geometry": { "type": "Point", "coordinates": [ -37.520103274239148, -4.964015348265918 ] } },